fips,county,state,lon,lat,rMapState,rMapCounty
1001,Autauga County,AL,-86.64564861,32.54009148,alabama,autauga
1003,Baldwin County,AL,-87.72627168,30.73831437,alabama,baldwin
1005,Barbour County,AL,-85.39732718,31.87402989,alabama,barbour
1007,Bibb County,AL,-87.12526047,32.99902355,alabama,bibb
1009,Blount County,AL,-86.5627114,33.99044001,alabama,blount
1011,Bullock County,AL,-85.71680363,32.10633554,alabama,bullock
1013,Butler County,AL,-86.68434696,31.75713941,alabama,butler
1015,Calhoun County,AL,-85.82956111,33.77624501,alabama,calhoun
1017,Chambers County,AL,-85.3948531,32.91633065,alabama,chambers
1019,Cherokee County,AL,-85.60421986,34.19147067,alabama,cherokee
1021,Chilton County,AL,-86.71562395,32.8516297,alabama,chilton
1023,Choctaw County,AL,-88.25953692,32.02046848,alabama,choctaw
1025,Clarke County,AL,-87.82482965,31.673326,alabama,clarke
1027,Clay County,AL,-85.85178714,33.27340969,alabama,clay
1029,Cleburne County,AL,-85.52610168,33.67621939,alabama,cleburne
1031,Coffee County,AL,-85.99444058,31.39847656,alabama,coffee
1033,Colbert County,AL,-87.81097599,34.70276047,alabama,colbert
1035,Conecuh County,AL,-86.99065443,31.43577781,alabama,conecuh
1037,Coosa County,AL,-86.24544124,32.94021362,alabama,coosa
1039,Covington County,AL,-86.45655104,31.25973186,alabama,covington
1041,Crenshaw County,AL,-86.31956157,31.73590915,alabama,crenshaw
1043,Cullman County,AL,-86.8654481,34.1382457,alabama,cullman
1045,Dale County,AL,-85.61909408,31.43086648,alabama,dale
1047,Dallas County,AL,-87.09767509,32.3267024,alabama,dallas
1049,DeKalb County,AL,-85.81226395,34.45439485,alabama,de kalb
1051,Elmore County,AL,-86.15419329,32.59892985,alabama,elmore
1053,Escambia County,AL,-87.15746525,31.13336493,alabama,escambia
1055,Etowah County,AL,-86.0334282,34.0527293,alabama,etowah
1057,Fayette County,AL,-87.73637609,33.72193461,alabama,fayette
1059,Franklin County,AL,-87.84558379,34.44338254,alabama,franklin
1061,Geneva County,AL,-85.8443776,31.09992203,alabama,geneva
1063,Greene County,AL,-87.94813999,32.86570101,alabama,greene
1065,Hale County,AL,-87.62219763,32.76490176,alabama,hale
1067,Henry County,AL,-85.2541057,31.51595712,alabama,henry
1069,Houston County,AL,-85.31543021,31.15254068,alabama,houston
1071,Jackson County,AL,-85.99775089,34.77683646,alabama,jackson
1073,Jefferson County,AL,-86.89025434,33.56305784,alabama,jefferson
1075,Lamar County,AL,-88.09795652,33.78170368,alabama,lamar
1077,Lauderdale County,AL,-87.65420478,34.90408733,alabama,lauderdale
1079,Lawrence County,AL,-87.30558826,34.52482237,alabama,lawrence
1081,Lee County,AL,-85.35526336,32.60991751,alabama,lee
1083,Limestone County,AL,-86.97369268,34.81222508,alabama,limestone
1085,Lowndes County,AL,-86.65003578,32.15780715,alabama,lowndes
1087,Macon County,AL,-85.69511359,32.39385812,alabama,macon
1089,Madison County,AL,-86.54312668,34.76518768,alabama,madison
1091,Marengo County,AL,-87.77831202,32.25123243,alabama,marengo
1093,Marion County,AL,-87.88319784,34.13791708,alabama,marion
1095,Marshall County,AL,-86.30606724,34.370296,alabama,marshall
1097,Mobile County,AL,-88.20696476,30.81361759,alabama,mobile
1099,Monroe County,AL,-87.36400237,31.57220015,alabama,monroe
1101,Montgomery County,AL,-86.2071019,32.2253798,alabama,montgomery
1103,Morgan County,AL,-86.84793577,34.45799994,alabama,morgan
1105,Perry County,AL,-87.28406573,32.63755143,alabama,perry
1107,Pickens County,AL,-88.08688718,33.28043537,alabama,pickens
1109,Pike County,AL,-85.94178756,31.80547499,alabama,pike
1111,Randolph County,AL,-85.4565992,33.29417484,alabama,randolph
1113,Russell County,AL,-85.19410539,32.29519985,alabama,russell
1115,St. Clair County,AL,-86.31393064,33.72446506,alabama,st clair
1117,Shelby County,AL,-86.66510363,33.26761124,alabama,shelby
1119,Sumter County,AL,-88.19206323,32.58961948,alabama,sumter
1121,Talladega County,AL,-86.1631135,33.3865307,alabama,talladega
1123,Tallapoosa County,AL,-85.8010116,32.86843413,alabama,tallapoosa
1125,Tuscaloosa County,AL,-87.51696088,33.29437697,alabama,tuscaloosa
1127,Walker County,AL,-87.28917888,33.81329044,alabama,walker
1129,Washington County,AL,-88.2056405,31.41319608,alabama,washington
1131,Wilcox County,AL,-87.2977354,31.99307576,alabama,wilcox
1133,Winston County,AL,-87.37003595,34.15314922,alabama,winston
4001,Apache County,AZ,-109.4911465,35.4050949,arizona,apache
4003,Cochise County,AZ,-109.7629489,31.88631155,arizona,cochise
4005,Coconino County,AZ,-111.76825,35.83392392,arizona,coconino
4007,Gila County,AZ,-110.8133077,33.79957115,arizona,gila
4009,Graham County,AZ,-109.8990184,32.93441503,arizona,graham
4011,Greenlee County,AZ,-109.2466206,33.20886115,arizona,greenlee
4013,Maricopa County,AZ,-112.4891389,33.35263707,arizona,maricopa
4015,Mohave County,AZ,-113.7530226,35.70647702,arizona,mohave
4017,Navajo County,AZ,-110.3227634,35.39276591,arizona,navajo
4019,Pima County,AZ,-111.8001696,32.10501296,arizona,pima
4021,Pinal County,AZ,-111.3518741,32.90667665,arizona,pinal
4023,Santa Cruz County,AZ,-110.8630803,31.53600577,arizona,santa cruz
4025,Yavapai County,AZ,-112.5499732,34.59798155,arizona,yavapai
4027,Yuma County,AZ,-113.9078575,32.77978162,arizona,yuma
5001,Arkansas County,AR,-91.37334862,34.29669057,arkansas,arkansas
5003,Ashley County,AR,-91.7718601,33.18646631,arkansas,ashley
5005,Baxter County,AR,-92.34346141,36.2916046,arkansas,baxter
5007,Benton County,AR,-94.26402599,36.34167755,arkansas,benton
5009,Boone County,AR,-93.08863785,36.30918328,arkansas,boone
5011,Bradley County,AR,-92.16599707,33.46463041,arkansas,bradley
5013,Calhoun County,AR,-92.51042418,33.55396653,arkansas,calhoun
5015,Carroll County,AR,-93.54763094,36.33781409,arkansas,carroll
5017,Chicot County,AR,-91.29630665,33.26091752,arkansas,chicot
5019,Clark County,AR,-93.17439489,34.05703316,arkansas,clark
5021,Clay County,AR,-90.42501648,36.37179616,arkansas,clay
5023,Cleburne County,AR,-92.04132081,35.52982647,arkansas,cleburne
5025,Cleveland County,AR,-92.18129679,33.89957956,arkansas,cleveland
5027,Columbia County,AR,-93.22920976,33.21548897,arkansas,columbia
5029,Conway County,AR,-92.69835872,35.25373435,arkansas,conway
5031,Craighead County,AR,-90.6430341,35.82915721,arkansas,craighead
5033,Crawford County,AR,-94.25175754,35.5843972,arkansas,crawford
5035,Crittenden County,AR,-90.30149903,35.20144073,arkansas,crittenden
5037,Cross County,AR,-90.77551081,35.28915734,arkansas,cross
5039,Dallas County,AR,-92.64901096,33.97069263,arkansas,dallas
5041,Desha County,AR,-91.27147343,33.83234098,arkansas,desha
5043,Drew County,AR,-91.72331533,33.58639516,arkansas,drew
5045,Faulkner County,AR,-92.33094352,35.14224253,arkansas,faulkner
5047,Franklin County,AR,-93.89830963,35.50546758,arkansas,franklin
5049,Fulton County,AR,-91.82490566,36.37956836,arkansas,fulton
5051,Garland County,AR,-93.14444412,34.57644159,arkansas,garland
5053,Grant County,AR,-92.42539288,34.29749043,arkansas,grant
5055,Greene County,AR,-90.55983788,36.11619833,arkansas,greene
5057,Hempstead County,AR,-93.66853507,33.73577783,arkansas,hempstead
5059,Hot Spring County,AR,-92.9384467,34.32236611,arkansas,hot spring
5061,Howard County,AR,-93.99788332,34.09553668,arkansas,howard
5063,Independence County,AR,-91.5785779,35.73542151,arkansas,independence
5065,Izard County,AR,-91.9243404,36.08622486,arkansas,izard
5067,Jackson County,AR,-91.22316384,35.59122045,arkansas,jackson
5069,Jefferson County,AR,-91.93175235,34.27586793,arkansas,jefferson
5071,Johnson County,AR,-93.47142181,35.5632314,arkansas,johnson
5073,Lafayette County,AR,-93.60666142,33.23929763,arkansas,lafayette
5075,Lawrence County,AR,-91.1179187,36.03754262,arkansas,lawrence
5077,Lee County,AR,-90.77401809,34.78294893,arkansas,lee
5079,Lincoln County,AR,-91.72609781,33.96344474,arkansas,lincoln
5081,Little River County,AR,-94.24316887,33.70943008,arkansas,little river
5083,Logan County,AR,-93.72428698,35.21063233,arkansas,logan
5085,Lonoke County,AR,-91.89113355,34.75678213,arkansas,lonoke
5087,Madison County,AR,-93.73086152,36.00389701,arkansas,madison
5089,Marion County,AR,-92.68189387,36.26366237,arkansas,marion
5091,Miller County,AR,-93.89572104,33.31893465,arkansas,miller
5093,Mississippi County,AR,-90.05540172,35.75570531,arkansas,mississippi
5095,Monroe County,AR,-91.20856742,34.67577812,arkansas,monroe
5097,Montgomery County,AR,-93.65831855,34.54772903,arkansas,montgomery
5099,Nevada County,AR,-93.3071694,33.66371797,arkansas,nevada
5101,Newton County,AR,-93.22041269,35.9112378,arkansas,newton
5103,Ouachita County,AR,-92.88709996,33.59759164,arkansas,ouachita
5105,Perry County,AR,-92.9415163,34.94234579,arkansas,perry
5107,Phillips County,AR,-90.85023789,34.43593202,arkansas,phillips
5109,Pike County,AR,-93.65884171,34.17130511,arkansas,pike
5111,Poinsett County,AR,-90.66737356,35.56784271,arkansas,poinsett
5113,Polk County,AR,-94.23785272,34.49701429,arkansas,polk
5115,Pope County,AR,-93.03339602,35.44081908,arkansas,pope
5117,Prairie County,AR,-91.55385063,34.83173761,arkansas,prairie
5119,Pulaski County,AR,-92.3127229,34.77183315,arkansas,pulaski
5121,Randolph County,AR,-91.0407469,36.34581173,arkansas,randolph
5123,St. Francis County,AR,-90.76062982,35.01549435,arkansas,st francis
5125,Saline County,AR,-92.67230801,34.65007785,arkansas,saline
5127,Scott County,AR,-94.0745859,34.86653654,arkansas,scott
5129,Searcy County,AR,-92.69877886,35.9044191,arkansas,searcy
5131,Sebastian County,AR,-94.28039312,35.2038252,arkansas,sebastian
5133,Sevier County,AR,-94.25270738,34.00088746,arkansas,sevier
5135,Sharp County,AR,-91.49387343,36.15308598,arkansas,sharp
5137,Stone County,AR,-92.16095128,35.85321963,arkansas,stone
5139,Union County,AR,-92.6011337,33.17079784,arkansas,union
5141,Van Buren County,AR,-92.52627345,35.57365455,arkansas,van buren
5143,Washington County,AR,-94.22168881,35.97609413,arkansas,washington
5145,White County,AR,-91.74561822,35.25271047,arkansas,white
5147,Woodruff County,AR,-91.24639277,35.1818549,arkansas,woodruff
5149,Yell County,AR,-93.41370271,35.00455982,arkansas,yell
6001,Alameda County,CA,-121.8494943,37.64653745,california,alameda
6003,Alpine County,CA,-119.8176648,38.59540533,california,alpine
6005,Amador County,CA,-120.6408645,38.45256542,california,amador
6007,Butte County,CA,-121.6007712,39.66723394,california,butte
6009,Calaveras County,CA,-120.5530165,38.20920689,california,calaveras
6011,Colusa County,CA,-122.2414946,39.18270042,california,colusa
6013,Contra Costa County,CA,-121.9166794,37.91861075,california,contra costa
6015,Del Norte County,CA,-123.9036495,41.76026868,california,del norte
6017,El Dorado County,CA,-120.5285454,38.78075659,california,el dorado
6019,Fresno County,CA,-119.6410355,36.75367786,california,fresno
6021,Glenn County,CA,-122.3912787,39.60512352,california,glenn
6023,Humboldt County,CA,-123.875444,40.70745304,california,humboldt
6025,Imperial County,CA,-115.3751413,33.044716,california,imperial
6027,Inyo County,CA,-117.4184965,36.51635004,california,inyo
6029,Kern County,CA,-118.728692,35.34162905,california,kern
6031,Kings County,CA,-119.8055367,36.06644424,california,kings
6033,Lake County,CA,-122.7625711,39.10908218,california,lake
6035,Lassen County,CA,-120.6006906,40.6874673,california,lassen
6037,Los Angeles County,CA,-118.2127419,34.36995693,california,los angeles
6039,Madera County,CA,-119.7624132,37.21357187,california,madera
6041,Marin County,CA,-122.695332,38.07104975,california,marin
6043,Mariposa County,CA,-119.8983572,37.58055949,california,mariposa
6045,Mendocino County,CA,-123.3848961,39.45640061,california,mendocino
6047,Merced County,CA,-120.7210913,37.18523452,california,merced
6049,Modoc County,CA,-120.7383261,41.60846865,california,modoc
6051,Mono County,CA,-118.8873505,37.93876612,california,mono
6053,Monterey County,CA,-121.2123651,36.20884676,california,monterey
6055,Napa County,CA,-122.3382312,38.5091312,california,napa
6057,Nevada County,CA,-120.7703875,39.30407464,california,nevada
6059,Orange County,CA,-117.7532706,33.71695588,california,orange
6061,Placer County,CA,-120.7165927,39.06660908,california,placer
6063,Plumas County,CA,-120.8496506,40.01530534,california,plumas
6065,Riverside County,CA,-116.0093191,33.74562148,california,riverside
6067,Sacramento County,CA,-121.3375098,38.45135776,california,sacramento
6069,San Benito County,CA,-121.0694853,36.60208872,california,san benito
6071,San Bernardino County,CA,-116.1729363,34.84516502,california,san bernardino
6073,San Diego County,CA,-116.7201884,33.04014595,california,san diego
6075,San Francisco County,CA,-122.4065487,37.753324,california,san francisco
6077,San Joaquin County,CA,-121.267813,37.94072224,california,san joaquin
6079,San Luis Obispo County,CA,-120.3724419,35.37930666,california,san luis obispo
6081,San Mateo County,CA,-122.2981593,37.43682908,california,san mateo
6083,Santa Barbara County,CA,-120.0109748,34.73351459,california,santa barbara
6085,Santa Clara County,CA,-121.6922741,37.23001509,california,santa clara
6087,Santa Cruz County,CA,-121.9949539,37.06602684,california,santa cruz
6089,Shasta County,CA,-122.0548272,40.7799972,california,shasta
6091,Sierra County,CA,-120.5112098,39.58248975,california,sierra
6093,Siskiyou County,CA,-122.5630896,41.60363418,california,siskiyou
6095,Solano County,CA,-121.9219016,38.27890842,california,solano
6097,Sonoma County,CA,-122.8763292,38.53307783,california,sonoma
6099,Stanislaus County,CA,-120.9973429,37.55780347,california,stanislaus
6101,Sutter County,CA,-121.6901719,39.03449176,california,sutter
6103,Tehama County,CA,-122.2457912,40.136481,california,tehama
6105,Trinity County,CA,-123.1281275,40.67365441,california,trinity
6107,Tulare County,CA,-118.7919929,36.2181266,california,tulare
6109,Tuolumne County,CA,-119.9555891,38.02884135,california,tuolumne
6111,Ventura County,CA,-119.0715239,34.4901459,california,ventura
6113,Yolo County,CA,-121.9048414,38.69168043,california,yolo
6115,Yuba County,CA,-121.3526605,39.26511003,california,yuba
8001,Adams County,CO,-104.3365344,39.88028614,colorado,adams
8003,Alamosa County,CO,-105.7997549,37.55690135,colorado,alamosa
8005,Arapahoe County,CO,-104.339408,39.65267576,colorado,arapahoe
8007,Archuleta County,CO,-107.0327286,37.18456623,colorado,archuleta
8009,Baca County,CO,-102.5639865,37.312686,colorado,baca
8011,Bent County,CO,-103.0792154,37.94298305,colorado,bent
8013,Boulder County,CO,-105.354227,40.09364667,colorado,boulder
8015,Chaffee County,CO,-106.2033264,38.74802139,colorado,chaffee
8017,Cheyenne County,CO,-102.6115899,38.82638965,colorado,cheyenne
8019,Clear Creek County,CO,-105.6467822,39.68706248,colorado,clear creek
8021,Conejos County,CO,-106.192383,37.18870441,colorado,conejos
8023,Costilla County,CO,-105.4358878,37.27630646,colorado,costilla
8025,Crowley County,CO,-103.7831903,38.32291386,colorado,crowley
8027,Custer County,CO,-105.3701473,38.10391569,colorado,custer
8029,Delta County,CO,-107.8766654,38.84646747,colorado,delta
8031,Denver County,CO,-104.8705058,39.76100539,colorado,denver
8033,Dolores County,CO,-108.5002451,37.75553541,colorado,dolores
8035,Douglas County,CO,-104.9250215,39.32489342,colorado,douglas
8037,Eagle County,CO,-106.6999413,39.62008124,colorado,eagle
8039,Elbert County,CO,-104.1335614,39.28755239,colorado,elbert
8041,El Paso County,CO,-104.5174584,38.82498969,colorado,el paso
8043,Fremont County,CO,-105.4398007,38.46735868,colorado,fremont
8045,Garfield County,CO,-107.9079181,39.59662685,colorado,garfield
8047,Gilpin County,CO,-105.5256161,39.86089762,colorado,gilpin
8049,Grand County,CO,-106.1216606,40.09826703,colorado,grand
8051,Gunnison County,CO,-107.0410982,38.66187528,colorado,gunnison
8053,Hinsdale County,CO,-107.3025769,37.82836587,colorado,hinsdale
8055,Huerfano County,CO,-104.9609139,37.68542184,colorado,huerfano
8057,Jackson County,CO,-106.352509,40.66740757,colorado,jackson
8059,Jefferson County,CO,-105.2485531,39.59053015,colorado,jefferson
8061,Kiowa County,CO,-102.7448022,38.42212342,colorado,kiowa
8063,Kit Carson County,CO,-102.6070306,39.31065495,colorado,kit carson
8065,Lake County,CO,-106.352012,39.19376761,colorado,lake
8067,La Plata County,CO,-107.8382974,37.28274935,colorado,la plata
8069,Larimer County,CO,-105.4687623,40.67448521,colorado,larimer
8071,Las Animas County,CO,-104.0497746,37.3032026,colorado,las animas
8073,Lincoln County,CO,-103.5149652,38.99023918,colorado,lincoln
8075,Logan County,CO,-103.1089239,40.73000082,colorado,logan
8077,Mesa County,CO,-108.4651654,39.01825676,colorado,mesa
8079,Mineral County,CO,-106.9295796,37.66123804,colorado,mineral
8081,Moffat County,CO,-108.2034554,40.62238429,colorado,moffat
8083,Montezuma County,CO,-108.6085941,37.34436472,colorado,montezuma
8085,Montrose County,CO,-108.2772365,38.39521767,colorado,montrose
8087,Morgan County,CO,-103.8052271,40.27235597,colorado,morgan
8089,Otero County,CO,-103.7199232,37.89510404,colorado,otero
8091,Ouray County,CO,-107.7714717,38.15473079,colorado,ouray
8093,Park County,CO,-105.7200314,39.11945862,colorado,park
8095,Phillips County,CO,-102.3661026,40.59689024,colorado,phillips
8097,Pitkin County,CO,-106.9170748,39.21251239,colorado,pitkin
8099,Prowers County,CO,-102.3977836,37.94586088,colorado,prowers
8101,Pueblo County,CO,-104.5069877,38.16838452,colorado,pueblo
8103,Rio Blanco County,CO,-108.2123329,39.98053803,colorado,rio blanco
8105,Rio Grande County,CO,-106.3910742,37.57267113,colorado,rio grande
8107,Routt County,CO,-106.9946646,40.49306371,colorado,routt
8109,Saguache County,CO,-106.2813821,38.07254193,colorado,saguache
8111,San Juan County,CO,-107.676552,37.75865387,colorado,san juan
8113,San Miguel County,CO,-108.4147717,37.99977501,colorado,san miguel
8115,Sedgwick County,CO,-102.3589707,40.87777204,colorado,sedgwick
8117,Summit County,CO,-106.1220381,39.62638227,colorado,summit
8119,Teller County,CO,-105.1583132,38.87939897,colorado,teller
8121,Washington County,CO,-103.1987696,39.97702595,colorado,washington
8123,Weld County,CO,-104.3898997,40.56234574,colorado,weld
8125,Yuma County,CO,-102.4246163,40.00668563,colorado,yuma
9001,Fairfield County,CT,-73.39231314,41.28133269,connecticut,fairfield
9003,Hartford County,CT,-72.7322188,41.80491927,connecticut,hartford
9005,Litchfield County,CT,-73.25150549,41.79594241,connecticut,litchfield
9007,Middlesex County,CT,-72.53260082,41.46561004,connecticut,middlesex
9009,New Haven County,CT,-72.92743105,41.41196642,connecticut,new haven
9011,New London County,CT,-72.09802642,41.48927969,connecticut,new london
9013,Tolland County,CT,-72.33707029,41.85916105,connecticut,tolland
9015,Windham County,CT,-71.98253222,41.83421666,connecticut,windham
10001,Kent County,DE,-75.57387647,39.08765398,delaware,kent
10003,New Castle County,DE,-75.65519125,39.58335752,delaware,new castle
10005,Sussex County,DE,-75.40668896,38.66573496,delaware,sussex
11001,District of Columbia,DC,-77.0340992,38.91078737,district of columbia,washington
12001,Alachua County,FL,-82.357751,29.66917793,florida,alachua
12003,Baker County,FL,-82.28134256,30.32406664,florida,baker
12005,Bay County,FL,-85.62432688,30.29532713,florida,bay
12007,Bradford County,FL,-82.17025208,29.94253418,florida,bradford
12009,Brevard County,FL,-80.75797736,28.17757196,florida,brevard
12011,Broward County,FL,-80.49868694,26.14255998,florida,broward
12013,Calhoun County,FL,-85.21358719,30.4146682,florida,calhoun
12015,Charlotte County,FL,-81.89022705,26.9042579,florida,charlotte
12017,Citrus County,FL,-82.45738098,28.85025043,florida,citrus
12019,Clay County,FL,-81.8454228,29.97157462,florida,clay
12021,Collier County,FL,-81.35667537,26.11400201,florida,collier
12023,Columbia County,FL,-82.62115508,30.21276594,florida,columbia
12086,Miami-Dade County,FL,-80.58750196,25.60789485,florida,miami-dade
12027,DeSoto County,FL,-81.84804122,27.18256275,florida,de soto
12029,Dixie County,FL,-83.15632586,29.60918676,florida,dixie
12031,Duval County,FL,-81.6658339,30.31514695,florida,duval
12033,Escambia County,FL,-87.39657433,30.7209762,florida,escambia
12035,Flagler County,FL,-81.31543056,29.45995484,florida,flagler
12037,Franklin County,FL,-84.80046505,29.91230768,florida,franklin
12039,Gadsden County,FL,-84.62046856,30.58010526,florida,gadsden
12041,Gilchrist County,FL,-82.80311778,29.72378408,florida,gilchrist
12043,Glades County,FL,-81.21348091,26.9472777,florida,glades
12045,Gulf County,FL,-85.24715852,29.95849768,florida,gulf
12047,Hamilton County,FL,-82.9353807,30.48728224,florida,hamilton
12049,Hardee County,FL,-81.81120596,27.49021668,florida,hardee
12051,Hendry County,FL,-81.17260251,26.5383539,florida,hendry
12053,Hernando County,FL,-82.43249983,28.55569756,florida,hernando
12055,Highlands County,FL,-81.336228,27.34477902,florida,highlands
12057,Hillsborough County,FL,-82.30823576,27.92836425,florida,hillsborough
12059,Holmes County,FL,-85.82645708,30.8856803,florida,holmes
12061,Indian River County,FL,-80.61554726,27.68305593,florida,indian river
12063,Jackson County,FL,-85.22699975,30.79919469,florida,jackson
12065,Jefferson County,FL,-83.88813554,30.43942925,florida,jefferson
12067,Lafayette County,FL,-83.18194356,29.98493348,florida,lafayette
12069,Lake County,FL,-81.69965559,28.75018418,florida,lake
12071,Lee County,FL,-81.80314198,26.58010818,florida,lee
12073,Leon County,FL,-84.27342715,30.46085222,florida,leon
12075,Levy County,FL,-82.7325523,29.32414747,florida,levy
12077,Liberty County,FL,-84.89480631,30.24904583,florida,liberty
12079,Madison County,FL,-83.45989063,30.44046068,florida,madison
12081,Manatee County,FL,-82.30352611,27.47235365,florida,manatee
12083,Marion County,FL,-82.05455176,29.2032406,florida,marion
12085,Martin County,FL,-80.38623141,27.07777033,florida,martin
12087,Monroe County,FL,-81.07024951,25.53393405,florida,monroe
12089,Nassau County,FL,-81.82363634,30.60042431,florida,nassau
12091,Okaloosa County,FL,-86.6027942,30.73988971,florida,okaloosa
12093,Okeechobee County,FL,-80.89421811,27.42833786,florida,okeechobee
12095,Orange County,FL,-81.30712545,28.50158052,florida,orange
12097,Osceola County,FL,-81.15003932,28.05709152,florida,osceola
12099,Palm Beach County,FL,-80.5130172,26.68903661,florida,palm beach
12101,Pasco County,FL,-82.39747099,28.30971247,florida,pasco
12103,Pinellas County,FL,-82.73108941,27.94859889,florida,pinellas
12105,Polk County,FL,-81.69746902,27.94356526,florida,polk
12107,Putnam County,FL,-81.74323328,29.59927624,florida,putnam
12109,St. Johns County,FL,-81.42856734,29.89377829,florida,st johns
12111,St. Lucie County,FL,-80.48022634,27.37042575,florida,st lucie
12113,Santa Rosa County,FL,-87.03013891,30.74563142,florida,santa rosa
12115,Sarasota County,FL,-82.35044075,27.1778329,florida,sarasota
12117,Seminole County,FL,-81.22082815,28.70280099,florida,seminole
12119,Sumter County,FL,-82.07723731,28.69131589,florida,sumter
12121,Suwannee County,FL,-82.98542973,30.18977208,florida,suwannee
12123,Taylor County,FL,-83.60089606,30.04932972,florida,taylor
12125,Union County,FL,-82.37031412,30.04162969,florida,union
12127,Volusia County,FL,-81.18945025,29.05247796,florida,volusia
12129,Wakulla County,FL,-84.40945473,30.17558002,florida,wakulla
12131,Walton County,FL,-86.17177883,30.67216876,florida,walton
12133,Washington County,FL,-85.68366894,30.62671676,florida,washington
13001,Appling County,GA,-82.31025777,31.74411958,georgia,appling
13003,Atkinson County,GA,-82.90032432,31.27799683,georgia,atkinson
13005,Bacon County,GA,-82.47997428,31.54316247,georgia,bacon
13007,Baker County,GA,-84.46534455,31.31018507,georgia,baker
13009,Baldwin County,GA,-83.25406891,33.06896354,georgia,baldwin
13011,Banks County,GA,-83.49414841,34.35258578,georgia,banks
13013,Barrow County,GA,-83.72180609,33.99139508,georgia,barrow
13015,Bartow County,GA,-84.85525287,34.22976581,georgia,bartow
13017,Ben Hill County,GA,-83.2547462,31.76062657,georgia,ben hill
13019,Berrien County,GA,-83.24322327,31.2669614,georgia,berrien
13021,Bibb County,GA,-83.71742693,32.81375908,georgia,bibb
13023,Bleckley County,GA,-83.35841506,32.43552522,georgia,bleckley
13025,Brantley County,GA,-81.99989521,31.19216796,georgia,brantley
13027,Brooks County,GA,-83.60014413,30.83790577,georgia,brooks
13029,Bryan County,GA,-81.44874909,32.0198707,georgia,bryan
13031,Bulloch County,GA,-81.74823365,32.40252008,georgia,bulloch
13033,Burke County,GA,-82.00541411,33.06229074,georgia,burke
13035,Butts County,GA,-83.96189287,33.28383161,georgia,butts
13037,Calhoun County,GA,-84.64198964,31.51612463,georgia,calhoun
13039,Camden County,GA,-81.69346239,30.94021106,georgia,camden
13043,Candler County,GA,-82.08760936,32.4052116,georgia,candler
13045,Carroll County,GA,-85.08566727,33.57598073,georgia,carroll
13047,Catoosa County,GA,-85.14471433,34.88942304,georgia,catoosa
13049,Charlton County,GA,-82.16119406,30.7921547,georgia,charlton
13051,Chatham County,GA,-81.13595926,32.00476746,georgia,chatham
13053,Chattahoochee County,GA,-84.78355382,32.34266266,georgia,chattahoochee
13055,Chattooga County,GA,-85.34986264,34.46255073,georgia,chattooga
13057,Cherokee County,GA,-84.48371602,34.2400035,georgia,cherokee
13059,Clarke County,GA,-83.36902144,33.94917379,georgia,clarke
13061,Clay County,GA,-84.99073017,31.6152322,georgia,clay
13063,Clayton County,GA,-84.36930371,33.53593967,georgia,clayton
13065,Clinch County,GA,-82.73413622,30.90478539,georgia,clinch
13067,Cobb County,GA,-84.59204242,33.93685037,georgia,cobb
13069,Coffee County,GA,-82.88746929,31.53717882,georgia,coffee
13071,Colquitt County,GA,-83.79028796,31.17186687,georgia,colquitt
13073,Columbia County,GA,-82.27405924,33.54575416,georgia,columbia
13075,Cook County,GA,-83.44671123,31.14888026,georgia,cook
13077,Coweta County,GA,-84.77744263,33.3436804,georgia,coweta
13079,Crawford County,GA,-83.99398099,32.7239371,georgia,crawford
13081,Crisp County,GA,-83.80834758,31.91661952,georgia,crisp
13083,Dade County,GA,-85.5035161,34.84071621,georgia,dade
13085,Dawson County,GA,-84.17780947,34.43284775,georgia,dawson
13087,Decatur County,GA,-84.58441386,30.87421907,georgia,decatur
13089,DeKalb County,GA,-84.23434944,33.76596772,georgia,de kalb
13091,Dodge County,GA,-83.19740886,32.16915269,georgia,dodge
13093,Dooly County,GA,-83.82943327,32.14807109,georgia,dooly
13095,Dougherty County,GA,-84.23578957,31.51839739,georgia,dougherty
13097,Douglas County,GA,-84.77109554,33.68774153,georgia,douglas
13099,Early County,GA,-84.91893736,31.31432899,georgia,early
13101,Echols County,GA,-82.90209515,30.70185522,georgia,echols
13103,Effingham County,GA,-81.34024961,32.37180931,georgia,effingham
13105,Elbert County,GA,-82.83863532,34.1122056,georgia,elbert
13107,Emanuel County,GA,-82.32017701,32.60247501,georgia,emanuel
13109,Evans County,GA,-81.89152732,32.16230306,georgia,evans
13111,Fannin County,GA,-84.33604378,34.85625252,georgia,fannin
13113,Fayette County,GA,-84.5114642,33.40219233,georgia,fayette
13115,Floyd County,GA,-85.22545302,34.24745188,georgia,floyd
13117,Forsyth County,GA,-84.13572732,34.22642035,georgia,forsyth
13119,Franklin County,GA,-83.22942359,34.37667294,georgia,franklin
13121,Fulton County,GA,-84.46752958,33.79483773,georgia,fulton
13123,Gilmer County,GA,-84.46489794,34.67575066,georgia,gilmer
13125,Glascock County,GA,-82.62674663,33.2248281,georgia,glascock
13127,Glynn County,GA,-81.59216844,31.24237507,georgia,glynn
13129,Gordon County,GA,-84.89193294,34.49171872,georgia,gordon
13131,Grady County,GA,-84.24304575,30.87015367,georgia,grady
13133,Greene County,GA,-83.17051362,33.57358107,georgia,greene
13135,Gwinnett County,GA,-84.03339909,33.94915967,georgia,gwinnett
13137,Habersham County,GA,-83.5345868,34.62557486,georgia,habersham
13139,Hall County,GA,-83.82934302,34.30856016,georgia,hall
13141,Hancock County,GA,-83.00901919,33.26633654,georgia,hancock
13143,Haralson County,GA,-85.21987492,33.79079352,georgia,haralson
13145,Harris County,GA,-84.91566364,32.73094236,georgia,harris
13147,Hart County,GA,-82.96578408,34.35076687,georgia,hart
13149,Heard County,GA,-85.13668699,33.28875573,georgia,heard
13151,Henry County,GA,-84.15986114,33.44908397,georgia,henry
13153,Houston County,GA,-83.69290204,32.4593691,georgia,houston
13155,Irwin County,GA,-83.30894978,31.60053169,georgia,irwin
13157,Jackson County,GA,-83.56380129,34.12887923,georgia,jackson
13159,Jasper County,GA,-83.6946353,33.31410355,georgia,jasper
13161,Jeff Davis County,GA,-82.65313605,31.79541198,georgia,jeff davis
13163,Jefferson County,GA,-82.42711369,33.06035512,georgia,jefferson
13165,Jenkins County,GA,-81.97263749,32.79661701,georgia,jenkins
13167,Johnson County,GA,-82.68333704,32.7094859,georgia,johnson
13169,Jones County,GA,-83.56715056,33.03037169,georgia,jones
13171,Lamar County,GA,-84.16227182,33.06789843,georgia,lamar
13173,Lanier County,GA,-83.06178127,31.01854846,georgia,lanier
13175,Laurens County,GA,-82.9435242,32.46312462,georgia,laurens
13177,Lee County,GA,-84.17383083,31.77255912,georgia,lee
13179,Liberty County,GA,-81.49586999,31.82973438,georgia,liberty
13181,Lincoln County,GA,-82.45655314,33.78869032,georgia,lincoln
13183,Long County,GA,-81.76016945,31.76442053,georgia,long
13185,Lowndes County,GA,-83.27877529,30.82811119,georgia,lowndes
13187,Lumpkin County,GA,-84.01130878,34.56516365,georgia,lumpkin
13189,McDuffie County,GA,-82.49300376,33.48335735,georgia,mcduffie
13191,McIntosh County,GA,-81.42506498,31.51612622,georgia,mcintosh
13193,Macon County,GA,-84.05753846,32.34581832,georgia,macon
13195,Madison County,GA,-83.20885942,34.12922852,georgia,madison
13197,Marion County,GA,-84.53390697,32.34563072,georgia,marion
13199,Meriwether County,GA,-84.69977586,33.03533271,georgia,meriwether
13201,Miller County,GA,-84.74243276,31.15388077,georgia,miller
13205,Mitchell County,GA,-84.21320281,31.21218877,georgia,mitchell
13207,Monroe County,GA,-83.9338456,33.01550333,georgia,monroe
13209,Montgomery County,GA,-82.54079025,32.17190838,georgia,montgomery
13211,Morgan County,GA,-83.49739284,33.5872216,georgia,morgan
13213,Murray County,GA,-84.76318961,34.78018099,georgia,murray
13215,Muscogee County,GA,-84.87715196,32.50369757,georgia,muscogee
13217,Newton County,GA,-83.85645651,33.55565689,georgia,newton
13219,Oconee County,GA,-83.44436368,33.83016176,georgia,oconee
13221,Oglethorpe County,GA,-83.09172869,33.87728705,georgia,oglethorpe
13223,Paulding County,GA,-84.87767568,33.91093384,georgia,paulding
13225,Peach County,GA,-83.83366018,32.57429119,georgia,peach
13227,Pickens County,GA,-84.47880513,34.45689309,georgia,pickens
13229,Pierce County,GA,-82.23795196,31.35385345,georgia,pierce
13231,Pike County,GA,-84.40519406,33.07988914,georgia,pike
13233,Polk County,GA,-85.19545576,33.99676526,georgia,polk
13235,Pulaski County,GA,-83.51736207,32.22799713,georgia,pulaski
13237,Putnam County,GA,-83.3775443,33.32153937,georgia,putnam
13239,Quitman County,GA,-85.02807542,31.85470555,georgia,quitman
13241,Rabun County,GA,-83.41437967,34.8788537,georgia,rabun
13243,Randolph County,GA,-84.76042379,31.75271078,georgia,randolph
13245,Richmond County,GA,-82.08329035,33.36000634,georgia,richmond
13247,Rockdale County,GA,-84.03489694,33.64973022,georgia,rockdale
13249,Schley County,GA,-84.33914099,32.25462234,georgia,schley
13251,Screven County,GA,-81.61714873,32.75691243,georgia,screven
13253,Seminole County,GA,-84.88019395,30.93365621,georgia,seminole
13255,Spalding County,GA,-84.29645645,33.25386686,georgia,spalding
13257,Stephens County,GA,-83.29412301,34.55440171,georgia,stephens
13259,Stewart County,GA,-84.85070323,32.0705958,georgia,stewart
13261,Sumter County,GA,-84.2260813,32.0393234,georgia,sumter
13263,Talbot County,GA,-84.54123699,32.6975298,georgia,talbot
13265,Taliaferro County,GA,-82.88668078,33.56288637,georgia,taliaferro
13267,Tattnall County,GA,-82.07056408,32.04550772,georgia,tattnall
13269,Taylor County,GA,-84.24869329,32.55117613,georgia,taylor
13271,Telfair County,GA,-82.96384371,31.92141485,georgia,telfair
13273,Terrell County,GA,-84.45169459,31.76990565,georgia,terrell
13275,Thomas County,GA,-83.93641398,30.85879382,georgia,thomas
13277,Tift County,GA,-83.54997143,31.45155778,georgia,tift
13279,Toombs County,GA,-82.34768014,32.10450702,georgia,toombs
13281,Towns County,GA,-83.74988104,34.90761011,georgia,towns
13283,Treutlen County,GA,-82.57163114,32.39760417,georgia,treutlen
13285,Troup County,GA,-85.03450283,33.02413129,georgia,troup
13287,Turner County,GA,-83.65650183,31.71588318,georgia,turner
13289,Twiggs County,GA,-83.45203197,32.67327744,georgia,twiggs
13291,Union County,GA,-84.0030221,34.82879002,georgia,union
13293,Upson County,GA,-84.30831782,32.87759299,georgia,upson
13295,Walker County,GA,-85.29841149,34.72315853,georgia,walker
13297,Walton County,GA,-83.73888319,33.7748198,georgia,walton
13299,Ware County,GA,-82.45738934,31.03026156,georgia,ware
13301,Warren County,GA,-82.68845957,33.40740375,georgia,warren
13303,Washington County,GA,-82.81165364,32.97327729,georgia,washington
13305,Wayne County,GA,-81.93083996,31.55234823,georgia,wayne
13307,Webster County,GA,-84.57432213,32.03907625,georgia,webster
13309,Wheeler County,GA,-82.74551708,32.11153746,georgia,wheeler
13311,White County,GA,-83.75173181,34.64157607,georgia,white
13313,Whitfield County,GA,-84.97160476,34.79698965,georgia,whitfield
13315,Wilcox County,GA,-83.4709038,31.96945999,georgia,wilcox
13317,Wilkes County,GA,-82.75555773,33.78377472,georgia,wilkes
13319,Wilkinson County,GA,-83.19499133,32.80105336,georgia,wilkinson
13321,Worth County,GA,-83.87770693,31.54633994,georgia,worth
16001,Ada County,ID,-116.235129,43.44663906,idaho,ada
16003,Adams County,ID,-116.4444561,44.89289693,idaho,adams
16005,Bannock County,ID,-112.2077244,42.66316922,idaho,bannock
16007,Bear Lake County,ID,-111.3381472,42.28692746,idaho,bear lake
16009,Benewah County,ID,-116.6406021,47.20497168,idaho,benewah
16011,Bingham County,ID,-112.4065686,43.2145345,idaho,bingham
16013,Blaine County,ID,-113.9824939,43.40861694,idaho,blaine
16015,Boise County,ID,-115.7185953,43.98388814,idaho,boise
16017,Bonner County,ID,-116.5978875,48.2908136,idaho,bonner
16019,Bonneville County,ID,-111.6345457,43.38714666,idaho,bonneville
16021,Boundary County,ID,-116.4502157,48.75758313,idaho,boundary
16023,Butte County,ID,-113.1687397,43.72182305,idaho,butte
16025,Camas County,ID,-114.8068806,43.45612286,idaho,camas
16027,Canyon County,ID,-116.7066747,43.61993556,idaho,canyon
16029,Caribou County,ID,-111.562418,42.77864713,idaho,caribou
16031,Cassia County,ID,-113.6180852,42.28886503,idaho,cassia
16033,Clark County,ID,-112.3491086,44.28617158,idaho,clark
16035,Clearwater County,ID,-115.6237955,46.66200456,idaho,clearwater
16037,Custer County,ID,-114.2757986,44.24097848,idaho,custer
16039,Elmore County,ID,-115.4663964,43.35513958,idaho,elmore
16041,Franklin County,ID,-111.8197263,42.18004653,idaho,franklin
16043,Fremont County,ID,-111.4873637,44.23140919,idaho,fremont
16045,Gem County,ID,-116.381522,44.06500259,idaho,gem
16047,Gooding County,ID,-114.8164737,42.97209769,idaho,gooding
16049,Idaho County,ID,-115.4603322,45.83172114,idaho,idaho
16051,Jefferson County,ID,-112.3131366,43.82071379,idaho,jefferson
16053,Jerome County,ID,-114.2776528,42.69217724,idaho,jerome
16055,Kootenai County,ID,-116.6850739,47.65907009,idaho,kootenai
16057,Latah County,ID,-116.6953935,46.8056758,idaho,latah
16059,Lemhi County,ID,-113.9276609,44.94531095,idaho,lemhi
16061,Lewis County,ID,-116.413719,46.22970847,idaho,lewis
16063,Lincoln County,ID,-114.142976,43.00032964,idaho,lincoln
16065,Madison County,ID,-111.6594852,43.77898491,idaho,madison
16067,Minidoka County,ID,-113.6409164,42.85739823,idaho,minidoka
16069,Nez Perce County,ID,-116.7331991,46.3190625,idaho,nez perce
16071,Oneida County,ID,-112.5501966,42.19713249,idaho,oneida
16073,Owyhee County,ID,-116.1770498,42.58871063,idaho,owyhee
16075,Payette County,ID,-116.7518455,44.00319589,idaho,payette
16077,Power County,ID,-112.8419123,42.69367451,idaho,power
16079,Shoshone County,ID,-115.8762569,47.33895903,idaho,shoshone
16081,Teton County,ID,-111.2198074,43.75412833,idaho,teton
16083,Twin Falls County,ID,-114.6885324,42.3660101,idaho,twin falls
16085,Valley County,ID,-115.5612979,44.76032138,idaho,valley
16087,Washington County,ID,-116.7746897,44.45122817,idaho,washington
17001,Adams County,IL,-91.18675272,39.98836845,illinois,adams
17003,Alexander County,IL,-89.34140844,37.20664159,illinois,alexander
17005,Bond County,IL,-89.44581361,38.88587677,illinois,bond
17007,Boone County,IL,-88.82097232,42.32982353,illinois,boone
17009,Brown County,IL,-90.7523209,39.95954127,illinois,brown
17011,Bureau County,IL,-89.51937814,41.40849097,illinois,bureau
17013,Calhoun County,IL,-90.67638307,39.16214326,illinois,calhoun
17015,Carroll County,IL,-89.9327136,42.07511699,illinois,carroll
17017,Cass County,IL,-90.2488919,39.96820496,illinois,cass
17019,Champaign County,IL,-88.20542231,40.1304187,illinois,champaign
17021,Christian County,IL,-89.28179189,39.54598905,illinois,christian
17023,Clark County,IL,-87.79609645,39.33289504,illinois,clark
17025,Clay County,IL,-88.49559735,38.74869841,illinois,clay
17027,Clinton County,IL,-89.42682644,38.60098933,illinois,clinton
17029,Coles County,IL,-88.22680285,39.51937043,illinois,coles
17031,Cook County,IL,-87.82118018,41.84295948,illinois,cook
17033,Crawford County,IL,-87.76400221,39.00269809,illinois,crawford
17035,Cumberland County,IL,-88.24588369,39.27483277,illinois,cumberland
17037,DeKalb County,IL,-88.76412514,41.89831912,illinois,de kalb
17039,De Witt County,IL,-88.90048117,40.1721452,illinois,de witt
17041,Douglas County,IL,-88.22314124,39.76455285,illinois,douglas
17043,DuPage County,IL,-88.09582605,41.84928697,illinois,du page
17045,Edgar County,IL,-87.74751085,39.67255992,illinois,edgar
17047,Edwards County,IL,-88.05416072,38.40746169,illinois,edwards
17049,Effingham County,IL,-88.59176815,39.05948084,illinois,effingham
17051,Fayette County,IL,-89.03522585,39.0004189,illinois,fayette
17053,Ford County,IL,-88.22110129,40.58740854,illinois,ford
17055,Franklin County,IL,-88.92809027,37.98963799,illinois,franklin
17057,Fulton County,IL,-90.20764407,40.47241734,illinois,fulton
17059,Gallatin County,IL,-88.23396834,37.76473609,illinois,gallatin
17061,Greene County,IL,-90.39818874,39.35839986,illinois,greene
17063,Grundy County,IL,-88.42432953,41.28610745,illinois,grundy
17065,Hamilton County,IL,-88.54489899,38.07838818,illinois,hamilton
17067,Hancock County,IL,-91.16082954,40.40760384,illinois,hancock
17069,Hardin County,IL,-88.26507486,37.52796749,illinois,hardin
17071,Henderson County,IL,-90.93018866,40.81381231,illinois,henderson
17073,Henry County,IL,-90.12339984,41.35098765,illinois,henry
17075,Iroquois County,IL,-87.82626343,40.74726555,illinois,iroquois
17077,Jackson County,IL,-89.38296855,37.78744591,illinois,jackson
17079,Jasper County,IL,-88.16064739,39.01303212,illinois,jasper
17081,Jefferson County,IL,-88.92638283,38.29401099,illinois,jefferson
17083,Jersey County,IL,-90.36275173,39.08555798,illinois,jersey
17085,Jo Daviess County,IL,-90.20805795,42.36909072,illinois,jo daviess
17087,Johnson County,IL,-88.8839688,37.46865847,illinois,johnson
17089,Kane County,IL,-88.42875905,41.94244015,illinois,kane
17091,Kankakee County,IL,-87.86374108,41.13889112,illinois,kankakee
17093,Kendall County,IL,-88.43204201,41.59425143,illinois,kendall
17095,Knox County,IL,-90.21624148,40.92873745,illinois,knox
17097,Lake County,IL,-88.00674943,42.3310322,illinois,lake
17099,LaSalle County,IL,-88.88708425,41.34443988,illinois,la salle
17101,Lawrence County,IL,-87.73387519,38.71959657,illinois,lawrence
17103,Lee County,IL,-89.2969744,41.74949773,illinois,lee
17105,Livingston County,IL,-88.55975646,40.88593169,illinois,livingston
17107,Logan County,IL,-89.36305887,40.12308211,illinois,logan
17109,McDonough County,IL,-90.67791356,40.44969982,illinois,mcdonough
17111,McHenry County,IL,-88.45287332,42.33041743,illinois,mchenry
17113,McLean County,IL,-88.85014275,40.48485386,illinois,mclean
17115,Macon County,IL,-88.96284736,39.85896632,illinois,macon
17117,Macoupin County,IL,-89.92579209,39.26622374,illinois,macoupin
17119,Madison County,IL,-89.9057099,38.83112741,illinois,madison
17121,Marion County,IL,-88.92459331,38.64904115,illinois,marion
17123,Marshall County,IL,-89.34165087,41.03300325,illinois,marshall
17125,Mason County,IL,-89.91619645,40.23701736,illinois,mason
17127,Massac County,IL,-88.71559033,37.23152191,illinois,massac
17129,Menard County,IL,-89.79853457,40.0271096,illinois,menard
17131,Mercer County,IL,-90.73522624,41.20271139,illinois,mercer
17133,Monroe County,IL,-90.18812426,38.27505921,illinois,monroe
17135,Montgomery County,IL,-89.48024815,39.231012,illinois,montgomery
17137,Morgan County,IL,-90.19996382,39.71168946,illinois,morgan
17139,Moultrie County,IL,-88.624049,39.63836004,illinois,moultrie
17141,Ogle County,IL,-89.32118923,42.0460821,illinois,ogle
17143,Peoria County,IL,-89.7623937,40.78605253,illinois,peoria
17145,Perry County,IL,-89.36774949,38.0862562,illinois,perry
17147,Piatt County,IL,-88.59556484,40.00833894,illinois,piatt
17149,Pike County,IL,-90.8928104,39.61871392,illinois,pike
17151,Pope County,IL,-88.56155094,37.42522439,illinois,pope
17153,Pulaski County,IL,-89.13204455,37.23330492,illinois,pulaski
17155,Putnam County,IL,-89.28990455,41.2051535,illinois,putnam
17157,Randolph County,IL,-89.82385221,38.05041582,illinois,randolph
17159,Richland County,IL,-88.09203905,38.71221054,illinois,richland
17161,Rock Island County,IL,-90.56527729,41.47013685,illinois,rock island
17163,St. Clair County,IL,-89.93163153,38.46493117,illinois,st clair
17165,Saline County,IL,-88.54471176,37.75489664,illinois,saline
17167,Sangamon County,IL,-89.65780207,39.75879799,illinois,sangamon
17169,Schuyler County,IL,-90.61187485,40.155426,illinois,schuyler
17171,Scott County,IL,-90.48280433,39.64363713,illinois,scott
17173,Shelby County,IL,-88.81032867,39.38931403,illinois,shelby
17175,Stark County,IL,-89.79680833,41.09328367,illinois,stark
17177,Stephenson County,IL,-89.65559767,42.35420147,illinois,stephenson
17179,Tazewell County,IL,-89.51309682,40.50820772,illinois,tazewell
17181,Union County,IL,-89.25802761,37.47670464,illinois,union
17183,Vermilion County,IL,-87.73470079,40.17340498,illinois,vermilion
17185,Wabash County,IL,-87.84463728,38.44889568,illinois,wabash
17187,Warren County,IL,-90.62073218,40.8439676,illinois,warren
17189,Washington County,IL,-89.41225322,38.35038062,illinois,washington
17191,Wayne County,IL,-88.43185646,38.42222691,illinois,wayne
17193,White County,IL,-88.18647387,38.08569475,illinois,white
17195,Whiteside County,IL,-89.91639011,41.76104547,illinois,whiteside
17197,Will County,IL,-87.98391319,41.44301365,illinois,will
17199,Williamson County,IL,-88.93035476,37.73390423,illinois,williamson
17201,Winnebago County,IL,-89.15910279,42.33952763,illinois,winnebago
17203,Woodford County,IL,-89.20852149,40.78660722,illinois,woodford
18001,Adams County,IN,-84.95133242,40.74386722,indiana,adams
18003,Allen County,IN,-85.07631765,41.09677712,indiana,allen
18005,Bartholomew County,IN,-85.89542463,39.20519899,indiana,bartholomew
18007,Benton County,IN,-87.30877572,40.60236671,indiana,benton
18009,Blackford County,IN,-85.33777608,40.47050213,indiana,blackford
18011,Boone County,IN,-86.46113469,40.0474062,indiana,boone
18013,Brown County,IN,-86.21671431,39.19535646,indiana,brown
18015,Carroll County,IN,-86.55309214,40.57900621,indiana,carroll
18017,Cass County,IN,-86.34895377,40.76094451,indiana,cass
18019,Clark County,IN,-85.71278346,38.48204779,indiana,clark
18021,Clay County,IN,-87.11754485,39.3923166,indiana,clay
18023,Clinton County,IN,-86.46861686,40.29722065,indiana,clinton
18025,Crawford County,IN,-86.45411056,38.29878498,indiana,crawford
18027,Daviess County,IN,-87.07064473,38.70536473,indiana,daviess
18029,Dearborn County,IN,-84.98352242,39.14662406,indiana,dearborn
18031,Decatur County,IN,-85.50642167,39.30422336,indiana,decatur
18033,DeKalb County,IN,-85.00417103,41.40972063,indiana,de kalb
18035,Delaware County,IN,-85.41023413,40.22593043,indiana,delaware
18037,Dubois County,IN,-86.8822506,38.36289017,indiana,dubois
18039,Elkhart County,IN,-85.86171027,41.60005993,indiana,elkhart
18041,Fayette County,IN,-85.18276635,39.63352506,indiana,fayette
18043,Floyd County,IN,-85.90378495,38.32038905,indiana,floyd
18045,Fountain County,IN,-87.23883981,40.12562427,indiana,fountain
18047,Franklin County,IN,-85.06234117,39.414177,indiana,franklin
18049,Fulton County,IN,-86.26677087,41.04883854,indiana,fulton
18051,Gibson County,IN,-87.58404011,38.31560672,indiana,gibson
18053,Grant County,IN,-85.66088824,40.51425428,indiana,grant
18055,Greene County,IN,-86.95575873,39.03896081,indiana,greene
18057,Hamilton County,IN,-86.05359974,40.06587979,indiana,hamilton
18059,Hancock County,IN,-85.77737366,39.81152042,indiana,hancock
18061,Harrison County,IN,-86.11286328,38.2021534,indiana,harrison
18063,Hendricks County,IN,-86.49870162,39.76757184,indiana,hendricks
18065,Henry County,IN,-85.40851024,39.92624973,indiana,henry
18067,Howard County,IN,-86.11673241,40.47933621,indiana,howard
18069,Huntington County,IN,-85.50005744,40.83376959,indiana,huntington
18071,Jackson County,IN,-86.031247,38.90969495,indiana,jackson
18073,Jasper County,IN,-87.10986805,41.02244358,indiana,jasper
18075,Jay County,IN,-85.01658125,40.43756596,indiana,jay
18077,Jefferson County,IN,-85.43644872,38.7893954,indiana,jefferson
18079,Jennings County,IN,-85.63200744,38.99629373,indiana,jennings
18081,Johnson County,IN,-86.0968641,39.48406575,indiana,johnson
18083,Knox County,IN,-87.41916794,38.69721741,indiana,knox
18085,Kosciusko County,IN,-85.86839254,41.24049373,indiana,kosciusko
18087,LaGrange County,IN,-85.436079,41.65978127,indiana,lagrange
18089,Lake County,IN,-87.3832653,41.42281846,indiana,lake
18091,LaPorte County,IN,-86.73244164,41.55198524,indiana,la porte
18093,Lawrence County,IN,-86.47228417,38.8399648,indiana,lawrence
18095,Madison County,IN,-85.72923403,40.15141322,indiana,madison
18097,Marion County,IN,-86.13387511,39.77581571,indiana,marion
18099,Marshall County,IN,-86.25774891,41.32520675,indiana,marshall
18101,Martin County,IN,-86.7946563,38.70850912,indiana,martin
18103,Miami County,IN,-86.04780231,40.77233849,indiana,miami
18105,Monroe County,IN,-86.51239454,39.15971386,indiana,monroe
18107,Montgomery County,IN,-86.88204778,40.04081474,indiana,montgomery
18109,Morgan County,IN,-86.4356953,39.48114937,indiana,morgan
18111,Newton County,IN,-87.39690874,40.95258481,indiana,newton
18113,Noble County,IN,-85.43253446,41.4127532,indiana,noble
18115,Ohio County,IN,-84.97769011,38.95073813,indiana,ohio
18117,Orange County,IN,-86.49001876,38.54247584,indiana,orange
18119,Owen County,IN,-86.82854867,39.31694334,indiana,owen
18121,Parke County,IN,-87.20340353,39.77077225,indiana,parke
18123,Perry County,IN,-86.6371715,38.08656801,indiana,perry
18125,Pike County,IN,-87.23812427,38.40076699,indiana,pike
18127,Porter County,IN,-87.06372601,41.46302657,indiana,porter
18129,Posey County,IN,-87.87318061,38.0253358,indiana,posey
18131,Pulaski County,IN,-86.69015149,41.03810214,indiana,pulaski
18133,Putnam County,IN,-86.83883563,39.66564697,indiana,putnam
18135,Randolph County,IN,-85.02287572,40.16163234,indiana,randolph
18137,Ripley County,IN,-85.2753726,39.10107116,indiana,ripley
18139,Rush County,IN,-85.46377824,39.61577962,indiana,rush
18141,St. Joseph County,IN,-86.28689173,41.62110264,indiana,st joseph
18143,Scott County,IN,-85.74245426,38.69007967,indiana,scott
18145,Shelby County,IN,-85.79111393,39.51890479,indiana,shelby
18147,Spencer County,IN,-87.01239219,38.01450096,indiana,spencer
18149,Starke County,IN,-86.64279734,41.27968075,indiana,starke
18151,Steuben County,IN,-85.00442316,41.65956778,indiana,steuben
18153,Sullivan County,IN,-87.41852672,39.09633897,indiana,sullivan
18155,Switzerland County,IN,-85.03427982,38.82755289,indiana,switzerland
18157,Tippecanoe County,IN,-86.88580512,40.38677579,indiana,tippecanoe
18159,Tipton County,IN,-86.05278719,40.3076957,indiana,tipton
18161,Union County,IN,-84.93362566,39.63088825,indiana,union
18163,Vanderburgh County,IN,-87.59029531,38.0252926,indiana,vanderburgh
18165,Vermillion County,IN,-87.46365263,39.85372582,indiana,vermillion
18167,Vigo County,IN,-87.39220183,39.43354092,indiana,vigo
18169,Wabash County,IN,-85.79358247,40.84235108,indiana,wabash
18171,Warren County,IN,-87.3571242,40.34879591,indiana,warren
18173,Warrick County,IN,-87.27827016,38.09347931,indiana,warrick
18175,Washington County,IN,-86.10001736,38.60358293,indiana,washington
18177,Wayne County,IN,-85.01986871,39.86793603,indiana,wayne
18179,Wells County,IN,-85.24027452,40.72862393,indiana,wells
18181,White County,IN,-86.86194904,40.74382621,indiana,white
18183,Whitley County,IN,-85.51793125,41.1505195,indiana,whitley
19001,Adair County,IA,-94.47787476,41.33317566,iowa,adair
19003,Adams County,IA,-94.70908998,41.03166342,iowa,adams
19005,Allamakee County,IA,-91.37066833,43.29042514,iowa,allamakee
19007,Appanoose County,IA,-92.86643699,40.75478894,iowa,appanoose
19009,Audubon County,IA,-94.9168789,41.68420482,iowa,audubon
19011,Benton County,IA,-92.05283272,42.08706005,iowa,benton
19013,Black Hawk County,IA,-92.3043013,42.47406284,iowa,black hawk
19015,Boone County,IA,-93.93428621,42.0357686,iowa,boone
19017,Bremer County,IA,-92.31496048,42.77702904,iowa,bremer
19019,Buchanan County,IA,-91.83057195,42.47355086,iowa,buchanan
19021,Buena Vista County,IA,-95.15841587,42.7397871,iowa,buena vista
19023,Butler County,IA,-92.78765106,42.73692322,iowa,butler
19025,Calhoun County,IA,-94.64770758,42.38406338,iowa,calhoun
19027,Carroll County,IA,-94.86755816,42.03615034,iowa,carroll
19029,Cass County,IA,-94.93829579,41.33137505,iowa,cass
19031,Cedar County,IA,-91.11429315,41.77904414,iowa,cedar
19033,Cerro Gordo County,IA,-93.26176722,43.08677829,iowa,cerro gordo
19035,Cherokee County,IA,-95.62711994,42.73619707,iowa,cherokee
19037,Chickasaw County,IA,-92.3156881,43.06529251,iowa,chickasaw
19039,Clarke County,IA,-93.79038144,41.03381109,iowa,clarke
19041,Clay County,IA,-95.1589123,43.09037184,iowa,clay
19043,Clayton County,IA,-91.32996139,42.84612703,iowa,clayton
19045,Clinton County,IA,-90.52143038,41.90713209,iowa,clinton
19047,Crawford County,IA,-95.38887787,42.0321846,iowa,crawford
19049,Dallas County,IA,-94.04781564,41.68781233,iowa,dallas
19051,Davis County,IA,-92.4023532,40.75697694,iowa,davis
19053,Decatur County,IA,-93.79175836,40.75194553,iowa,decatur
19055,Delaware County,IA,-91.35566044,42.4740448,iowa,delaware
19057,Des Moines County,IA,-91.17292812,40.93410085,iowa,des moines
19059,Dickinson County,IA,-95.15539452,43.38460626,iowa,dickinson
19061,Dubuque County,IA,-90.8751827,42.46982572,iowa,dubuque
19063,Emmet County,IA,-94.6855746,43.38411712,iowa,emmet
19065,Fayette County,IA,-91.83883158,42.86544942,iowa,fayette
19067,Floyd County,IA,-92.78908059,43.06605551,iowa,floyd
19069,Franklin County,IA,-93.26162577,42.73692226,iowa,franklin
19071,Fremont County,IA,-95.60886766,40.75943077,iowa,fremont
19073,Greene County,IA,-94.40052414,42.03791428,iowa,greene
19075,Grundy County,IA,-92.78561816,42.40898624,iowa,grundy
19077,Guthrie County,IA,-94.51000138,41.68569173,iowa,guthrie
19079,Hamilton County,IA,-93.70756895,42.38477754,iowa,hamilton
19081,Hancock County,IA,-93.73380486,43.0875154,iowa,hancock
19083,Hardin County,IA,-93.23943775,42.38715182,iowa,hardin
19085,Harrison County,IA,-95.81522103,41.6824831,iowa,harrison
19087,Henry County,IA,-91.52873168,40.99777825,iowa,henry
19089,Howard County,IA,-92.31603146,43.36287137,iowa,howard
19091,Humboldt County,IA,-94.20572281,42.77989388,iowa,humboldt
19093,Ida County,IA,-95.52045301,42.38452226,iowa,ida
19095,Iowa County,IA,-92.05141557,41.69568597,iowa,iowa
19097,Jackson County,IA,-90.5592176,42.1753868,iowa,jackson
19099,Jasper County,IA,-93.05114705,41.68936266,iowa,jasper
19101,Jefferson County,IA,-91.9345209,41.03708733,iowa,jefferson
19103,Johnson County,IA,-91.57476198,41.67963316,iowa,johnson
19105,Jones County,IA,-91.11387579,42.12733384,iowa,jones
19107,Keokuk County,IA,-92.16671884,41.34576123,iowa,keokuk
19109,Kossuth County,IA,-94.20956435,43.21265598,iowa,kossuth
19111,Lee County,IA,-91.46391536,40.65948029,iowa,lee
19113,Linn County,IA,-91.58730316,42.08661461,iowa,linn
19115,Louisa County,IA,-91.24841024,41.23052686,iowa,louisa
19117,Lucas County,IA,-93.33398328,41.03309622,iowa,lucas
19119,Lyon County,IA,-96.20692002,43.38089419,iowa,lyon
19121,Madison County,IA,-94.02511319,41.33468507,iowa,madison
19123,Mahaska County,IA,-92.63137736,41.34247572,iowa,mahaska
19125,Marion County,IA,-93.09637571,41.338226,iowa,marion
19127,Marshall County,IA,-92.99677615,42.04149538,iowa,marshall
19129,Mills County,IA,-95.61687104,41.03499665,iowa,mills
19131,Mitchell County,IA,-92.78908059,43.36746543,iowa,mitchell
19133,Monona County,IA,-95.96123522,42.04667508,iowa,monona
19135,Monroe County,IA,-92.86929414,41.03497239,iowa,monroe
19137,Montgomery County,IA,-95.158488,41.02877386,iowa,montgomery
19139,Muscatine County,IA,-91.09426888,41.49319133,iowa,muscatine
19141,O'Brien County,IA,-95.6272884,43.08857932,iowa,obrien
19143,Osceola County,IA,-95.62665176,43.38436317,iowa,osceola
19145,Page County,IA,-95.1513857,40.75155703,iowa,page
19147,Palo Alto County,IA,-94.68412967,43.0914656,iowa,palo alto
19149,Plymouth County,IA,-96.20410624,42.73041531,iowa,plymouth
19151,Pocahontas County,IA,-94.68099648,42.73856415,iowa,pocahontas
19153,Polk County,IA,-93.57949512,41.68617871,iowa,polk
19155,Pottawattamie County,IA,-95.54186395,41.33612714,iowa,pottawattamie
19157,Poweshiek County,IA,-92.51926462,41.69674365,iowa,poweshiek
19159,Ringgold County,IA,-94.25083597,40.74975712,iowa,ringgold
19161,Sac County,IA,-95.11763693,42.38404469,iowa,sac
19163,Scott County,IA,-90.61225696,41.64797539,iowa,scott
19165,Shelby County,IA,-95.31539686,41.6839338,iowa,shelby
19167,Sioux County,IA,-96.17018129,43.08247127,iowa,sioux
19169,Story County,IA,-93.46700022,42.03539568,iowa,story
19171,Tama County,IA,-92.52265262,42.08618516,iowa,tama
19173,Taylor County,IA,-94.70451455,40.75066166,iowa,taylor
19175,Union County,IA,-94.2515564,41.03237343,iowa,union
19177,Van Buren County,IA,-91.93823903,40.76008878,iowa,van buren
19179,Wapello County,IA,-92.4008829,41.03722845,iowa,wapello
19181,Warren County,IA,-93.56969773,41.33746296,iowa,warren
19183,Washington County,IA,-91.70122874,41.34408472,iowa,washington
19185,Wayne County,IA,-93.33560533,40.75183193,iowa,wayne
19187,Webster County,IA,-94.18271435,42.42629119,iowa,webster
19189,Winnebago County,IA,-93.73681718,43.38629018,iowa,winnebago
19191,Winneshiek County,IA,-91.83991846,43.29684035,iowa,winneshiek
19193,Woodbury County,IA,-96.04196535,42.38172197,iowa,woodbury
19195,Worth County,IA,-93.26087507,43.38553584,iowa,worth
19197,Wright County,IA,-93.73271093,42.73712683,iowa,wright
20001,Allen County,KS,-95.3179264,37.88290207,kansas,allen
20003,Anderson County,KS,-95.30444358,38.21269501,kansas,anderson
20005,Atchison County,KS,-95.31737422,39.52877669,kansas,atchison
20007,Barber County,KS,-98.69329203,37.22484056,kansas,barber
20009,Barton County,KS,-98.75572832,38.47495884,kansas,barton
20011,Bourbon County,KS,-94.85958888,37.854871,kansas,bourbon
20013,Brown County,KS,-95.57223303,39.83062658,kansas,brown
20015,Butler County,KS,-96.85251933,37.76237158,kansas,butler
20017,Chase County,KS,-96.60313333,38.28860599,kansas,chase
20019,Chautauqua County,KS,-96.25425897,37.14789237,kansas,chautauqua
20021,Cherokee County,KS,-94.86322526,37.18156701,kansas,cherokee
20023,Cheyenne County,KS,-101.7350798,39.79080033,kansas,cheyenne
20025,Clark County,KS,-99.82142464,37.22959252,kansas,clark
20027,Clay County,KS,-97.16616916,39.33584893,kansas,clay
20029,Cloud County,KS,-97.64919662,39.46533203,kansas,cloud
20031,Coffey County,KS,-95.74574161,38.23026137,kansas,coffey
20033,Comanche County,KS,-99.28430947,37.18299179,kansas,comanche
20035,Cowley County,KS,-96.85053023,37.22520394,kansas,cowley
20037,Crawford County,KS,-94.86377127,37.51039585,kansas,crawford
20039,Decatur County,KS,-100.4552007,39.78872785,kansas,decatur
20041,Dickinson County,KS,-97.1525606,38.85463971,kansas,dickinson
20043,Doniphan County,KS,-95.15853481,39.79939895,kansas,doniphan
20045,Douglas County,KS,-95.31219549,38.8892202,kansas,douglas
20047,Edwards County,KS,-99.31034287,37.88070294,kansas,edwards
20049,Elk County,KS,-96.25345597,37.44013152,kansas,elk
20051,Ellis County,KS,-99.31766849,38.91242789,kansas,ellis
20053,Ellsworth County,KS,-98.20448259,38.69229262,kansas,ellsworth
20055,Finney County,KS,-100.7391836,38.04048135,kansas,finney
20057,Ford County,KS,-99.88628153,37.68881228,kansas,ford
20059,Franklin County,KS,-95.30021167,38.56576043,kansas,franklin
20061,Geary County,KS,-96.74958048,38.98974949,kansas,geary
20063,Gove County,KS,-100.4787211,38.91987519,kansas,gove
20065,Graham County,KS,-99.88088964,39.35641182,kansas,graham
20067,Grant County,KS,-101.3046684,37.56311226,kansas,grant
20069,Gray County,KS,-100.4296862,37.73521545,kansas,gray
20071,Greeley County,KS,-101.8054769,38.47555282,kansas,greeley
20073,Greenwood County,KS,-96.24011272,37.86387655,kansas,greenwood
20075,Hamilton County,KS,-101.7917492,37.99505546,kansas,hamilton
20077,Harper County,KS,-98.08177948,37.18496132,kansas,harper
20079,Harvey County,KS,-97.4343338,38.032938,kansas,harvey
20081,Haskell County,KS,-100.8631969,37.56194719,kansas,haskell
20083,Hodgeman County,KS,-99.89846159,38.085003,kansas,hodgeman
20085,Jackson County,KS,-95.79722142,39.41338715,kansas,jackson
20087,Jefferson County,KS,-95.39381737,39.23599652,kansas,jefferson
20089,Jewell County,KS,-98.22150247,39.78229827,kansas,jewell
20091,Johnson County,KS,-94.83464467,38.88690576,kansas,johnson
20093,Kearny County,KS,-101.3201077,37.99562136,kansas,kearny
20095,Kingman County,KS,-98.13808122,37.55091589,kansas,kingman
20097,Kiowa County,KS,-99.2885466,37.54595309,kansas,kiowa
20099,Labette County,KS,-95.31115367,37.19977557,kansas,labette
20101,Lane County,KS,-100.4557368,38.47889201,kansas,lane
20103,Leavenworth County,KS,-95.04857531,39.20592977,kansas,leavenworth
20105,Lincoln County,KS,-98.21075562,39.04119211,kansas,lincoln
20107,Linn County,KS,-94.85373683,38.21523812,kansas,linn
20109,Logan County,KS,-101.138997,38.92295415,kansas,logan
20111,Lyon County,KS,-96.1598997,38.44011179,kansas,lyon
20113,McPherson County,KS,-97.65206146,38.38304926,kansas,mcpherson
20115,Marion County,KS,-97.10463487,38.34777656,kansas,marion
20117,Marshall County,KS,-96.52529953,39.77954552,kansas,marshall
20119,Meade County,KS,-100.3578743,37.23664066,kansas,meade
20121,Miami County,KS,-94.84743118,38.56561334,kansas,miami
20123,Mitchell County,KS,-98.20859405,39.38655676,kansas,mitchell
20125,Montgomery County,KS,-95.75437251,37.20235642,kansas,montgomery
20127,Morris County,KS,-96.64740286,38.675739,kansas,morris
20129,Morton County,KS,-101.8016306,37.19392923,kansas,morton
20131,Nemaha County,KS,-96.01580908,39.77994952,kansas,nemaha
20133,Neosho County,KS,-95.31688151,37.5591911,kansas,neosho
20135,Ness County,KS,-99.91039191,38.47630992,kansas,ness
20137,Norton County,KS,-99.9031683,39.78765354,kansas,norton
20139,Osage County,KS,-95.73989147,38.64564008,kansas,osage
20141,Osborne County,KS,-98.76095057,39.34538104,kansas,osborne
20143,Ottawa County,KS,-97.64990979,39.12185032,kansas,ottawa
20145,Pawnee County,KS,-99.23774314,38.17886228,kansas,pawnee
20147,Phillips County,KS,-99.34705569,39.78219979,kansas,phillips
20149,Pottawatomie County,KS,-96.33975572,39.36914975,kansas,pottawatomie
20151,Pratt County,KS,-98.7413904,37.63889199,kansas,pratt
20153,Rawlins County,KS,-101.0695702,39.7945316,kansas,rawlins
20155,Reno County,KS,-98.08451588,37.94555509,kansas,reno
20157,Republic County,KS,-97.65532776,39.82150335,kansas,republic
20159,Rice County,KS,-98.20165452,38.33972213,kansas,rice
20161,Riley County,KS,-96.73798682,39.29053277,kansas,riley
20163,Rooks County,KS,-99.31939286,39.35068226,kansas,rooks
20165,Rush County,KS,-99.30562716,38.51850737,kansas,rush
20167,Russell County,KS,-98.76396853,38.91109279,kansas,russell
20169,Saline County,KS,-97.65320369,38.77507801,kansas,saline
20171,Scott County,KS,-100.9020929,38.48215536,kansas,scott
20173,Sedgwick County,KS,-97.46921956,37.66534986,kansas,sedgwick
20175,Seward County,KS,-100.8467972,37.19498988,kansas,seward
20177,Shawnee County,KS,-95.76447874,39.04181644,kansas,shawnee
20179,Sheridan County,KS,-100.4386753,39.3575243,kansas,sheridan
20181,Sherman County,KS,-101.7182037,39.35586868,kansas,sherman
20183,Smith County,KS,-98.78794317,39.78294811,kansas,smith
20185,Stafford County,KS,-98.71715817,38.02425117,kansas,stafford
20187,Stanton County,KS,-101.7849235,37.56140198,kansas,stanton
20189,Stevens County,KS,-101.3118333,37.19603453,kansas,stevens
20191,Sumner County,KS,-97.49024139,37.22396567,kansas,sumner
20193,Thomas County,KS,-101.0480529,39.36165545,kansas,thomas
20195,Trego County,KS,-99.87656647,38.91854047,kansas,trego
20197,Wabaunsee County,KS,-96.20649033,38.94046618,kansas,wabaunsee
20199,Wallace County,KS,-101.7633673,38.91555916,kansas,wallace
20201,Washington County,KS,-97.09212428,39.77842354,kansas,washington
20203,Wichita County,KS,-101.3442505,38.47811618,kansas,wichita
20205,Wilson County,KS,-95.75353139,37.55953242,kansas,wilson
20207,Woodson County,KS,-95.74993891,37.88145568,kansas,woodson
20209,Wyandotte County,KS,-94.76918047,39.12491433,kansas,wyandotte
21001,Adair County,KY,-85.29510412,37.09057595,kentucky,adair
21003,Allen County,KY,-86.18394611,36.7576737,kentucky,allen
21005,Anderson County,KY,-84.99356065,38.00041427,kentucky,anderson
21007,Ballard County,KY,-89.0023756,37.07297069,kentucky,ballard
21009,Barren County,KY,-85.92843237,36.9724301,kentucky,barren
21011,Bath County,KY,-83.73501138,38.1533696,kentucky,bath
21013,Bell County,KY,-83.6757744,36.72599876,kentucky,bell
21015,Boone County,KY,-84.72910424,38.96432684,kentucky,boone
21017,Bourbon County,KY,-84.21118762,38.20599412,kentucky,bourbon
21019,Boyd County,KY,-82.67732013,38.36328298,kentucky,boyd
21021,Boyle County,KY,-84.87000609,37.62283544,kentucky,boyle
21023,Bracken County,KY,-84.08720463,38.69635004,kentucky,bracken
21025,Breathitt County,KY,-83.31599408,37.52530166,kentucky,breathitt
21027,Breckinridge County,KY,-86.43526227,37.78521708,kentucky,breckinridge
21029,Bullitt County,KY,-85.69815512,37.96743528,kentucky,bullitt
21031,Butler County,KY,-86.67427775,37.2084993,kentucky,butler
21033,Caldwell County,KY,-87.86305395,37.14229907,kentucky,caldwell
21035,Calloway County,KY,-88.27037413,36.62484397,kentucky,calloway
21037,Campbell County,KY,-84.37499867,38.95193944,kentucky,campbell
21039,Carlisle County,KY,-88.96001838,36.86086279,kentucky,carlisle
21041,Carroll County,KY,-85.13004202,38.65988336,kentucky,carroll
21043,Carter County,KY,-83.03434146,38.32122068,kentucky,carter
21045,Casey County,KY,-84.93843823,37.29918461,kentucky,casey
21047,Christian County,KY,-87.48503111,36.89254854,kentucky,christian
21049,Clark County,KY,-84.14234359,37.97016321,kentucky,clark
21051,Clay County,KY,-83.7101239,37.16505523,kentucky,clay
21053,Clinton County,KY,-85.13786471,36.72983687,kentucky,clinton
21055,Crittenden County,KY,-88.10078193,37.3523095,kentucky,crittenden
21057,Cumberland County,KY,-85.39900673,36.7916341,kentucky,cumberland
21059,Daviess County,KY,-87.08862321,37.73029199,kentucky,daviess
21061,Edmonson County,KY,-86.23543802,37.21123858,kentucky,edmonson
21063,Elliott County,KY,-83.09710892,38.11574565,kentucky,elliott
21065,Estill County,KY,-83.96132227,37.69163301,kentucky,estill
21067,Fayette County,KY,-84.45620435,38.03819601,kentucky,fayette
21069,Fleming County,KY,-83.68285734,38.37367748,kentucky,fleming
21071,Floyd County,KY,-82.73618337,37.56400199,kentucky,floyd
21073,Franklin County,KY,-84.8770812,38.22962421,kentucky,franklin
21075,Fulton County,KY,-89.12466197,36.5753837,kentucky,fulton
21077,Gallatin County,KY,-84.85537997,38.74610906,kentucky,gallatin
21079,Garrard County,KY,-84.53664416,37.64043306,kentucky,garrard
21081,Grant County,KY,-84.61416067,38.64046869,kentucky,grant
21083,Graves County,KY,-88.64756896,36.7260599,kentucky,graves
21085,Grayson County,KY,-86.34390507,37.47059056,kentucky,grayson
21087,Green County,KY,-85.56519099,37.26667943,kentucky,green
21089,Greenup County,KY,-82.90827882,38.54866195,kentucky,greenup
21091,Hancock County,KY,-86.7832682,37.84741006,kentucky,hancock
21093,Hardin County,KY,-85.9713996,37.7030117,kentucky,hardin
21095,Harlan County,KY,-83.20958433,36.85789807,kentucky,harlan
21097,Harrison County,KY,-84.33002821,38.4375269,kentucky,harrison
21099,Hart County,KY,-85.88776269,37.30398098,kentucky,hart
21101,Henderson County,KY,-87.57326575,37.7950343,kentucky,henderson
21103,Henry County,KY,-85.12097967,38.43891795,kentucky,henry
21105,Hickman County,KY,-88.92755739,36.67895115,kentucky,hickman
21107,Hopkins County,KY,-87.54117165,37.30823437,kentucky,hopkins
21109,Jackson County,KY,-84.00309632,37.42208007,kentucky,jackson
21111,Jefferson County,KY,-85.66449659,38.18006673,kentucky,jefferson
21113,Jessamine County,KY,-84.57914246,37.87051822,kentucky,jessamine
21115,Johnson County,KY,-82.82590002,37.84707824,kentucky,johnson
21117,Kenton County,KY,-84.52886045,38.93005566,kentucky,kenton
21119,Knott County,KY,-82.94948091,37.36149017,kentucky,knott
21121,Knox County,KY,-83.84938964,36.89654466,kentucky,knox
21123,Larue County,KY,-85.70961845,37.5479588,kentucky,larue
21125,Laurel County,KY,-84.11087746,37.11301511,kentucky,laurel
21127,Lawrence County,KY,-82.7269436,38.06793046,kentucky,lawrence
21129,Lee County,KY,-83.70456896,37.59847651,kentucky,lee
21131,Leslie County,KY,-83.37423628,37.0961803,kentucky,leslie
21133,Letcher County,KY,-82.84893879,37.1263544,kentucky,letcher
21135,Lewis County,KY,-83.36982192,38.53987123,kentucky,lewis
21137,Lincoln County,KY,-84.66363418,37.45816177,kentucky,lincoln
21139,Livingston County,KY,-88.35929922,37.20580767,kentucky,livingston
21141,Logan County,KY,-86.87599199,36.85647057,kentucky,logan
21143,Lyon County,KY,-88.0769221,37.01500475,kentucky,lyon
21145,McCracken County,KY,-88.71077515,37.06024395,kentucky,mccracken
21147,McCreary County,KY,-84.48122274,36.74241314,kentucky,mccreary
21149,McLean County,KY,-87.26682311,37.52714689,kentucky,mclean
21151,Madison County,KY,-84.27579959,37.72066779,kentucky,madison
21153,Magoffin County,KY,-83.05571241,37.70679357,kentucky,magoffin
21155,Marion County,KY,-85.27650571,37.55786754,kentucky,marion
21157,Marshall County,KY,-88.32570868,36.88036773,kentucky,marshall
21159,Martin County,KY,-82.5066808,37.80310085,kentucky,martin
21161,Mason County,KY,-83.80855092,38.60093344,kentucky,mason
21163,Meade County,KY,-86.21548956,37.98389928,kentucky,meade
21165,Menifee County,KY,-83.59809959,37.94803438,kentucky,menifee
21167,Mercer County,KY,-84.87548633,37.81016981,kentucky,mercer
21169,Metcalfe County,KY,-85.63591424,36.99509727,kentucky,metcalfe
21171,Monroe County,KY,-85.72022687,36.71435791,kentucky,monroe
21173,Montgomery County,KY,-83.90696822,38.03368988,kentucky,montgomery
21175,Morgan County,KY,-83.25171571,37.91605796,kentucky,morgan
21177,Muhlenberg County,KY,-87.13998924,37.21292521,kentucky,muhlenberg
21179,Nelson County,KY,-85.48539664,37.80884815,kentucky,nelson
21181,Nicholas County,KY,-84.00499579,38.33786591,kentucky,nicholas
21183,Ohio County,KY,-86.84910082,37.47762737,kentucky,ohio
21185,Oldham County,KY,-85.45562022,38.39207606,kentucky,oldham
21187,Owen County,KY,-84.82059771,38.5073583,kentucky,owen
21189,Owsley County,KY,-83.67912586,37.4224626,kentucky,owsley
21191,Pendleton County,KY,-84.35151201,38.69043897,kentucky,pendleton
21193,Perry County,KY,-83.21290195,37.24743952,kentucky,perry
21195,Pike County,KY,-82.39106504,37.46856842,kentucky,pike
21197,Powell County,KY,-83.82189769,37.83165515,kentucky,powell
21199,Pulaski County,KY,-84.55974522,37.11016069,kentucky,pulaski
21201,Robertson County,KY,-84.03613239,38.5159132,kentucky,robertson
21203,Rockcastle County,KY,-84.31356537,37.36667839,kentucky,rockcastle
21205,Rowan County,KY,-83.40300416,38.20078964,kentucky,rowan
21207,Russell County,KY,-85.06582799,36.97942769,kentucky,russell
21209,Scott County,KY,-84.57916794,38.28550968,kentucky,scott
21211,Shelby County,KY,-85.19749765,38.20671709,kentucky,shelby
21213,Simpson County,KY,-86.57965684,36.74143972,kentucky,simpson
21215,Spencer County,KY,-85.32333001,38.02707406,kentucky,spencer
21217,Taylor County,KY,-85.33666884,37.36016596,kentucky,taylor
21219,Todd County,KY,-87.17535615,36.83409963,kentucky,todd
21221,Trigg County,KY,-87.87012333,36.80380461,kentucky,trigg
21223,Trimble County,KY,-85.34504415,38.60319348,kentucky,trimble
21225,Union County,KY,-87.94461445,37.65477554,kentucky,union
21227,Warren County,KY,-86.42019692,36.99772179,kentucky,warren
21229,Washington County,KY,-85.17838398,37.76012736,kentucky,washington
21231,Wayne County,KY,-84.82435023,36.8061113,kentucky,wayne
21233,Webster County,KY,-87.6795911,37.51682334,kentucky,webster
21235,Whitley County,KY,-84.14595002,36.75885973,kentucky,whitley
21237,Wolfe County,KY,-83.48718651,37.74010808,kentucky,wolfe
21239,Woodford County,KY,-84.74345496,38.03532279,kentucky,woodford
22001,Acadia Parish,LA,-92.4071602,30.29909197,louisiana,acadia
22003,Allen Parish,LA,-92.82364154,30.65532115,louisiana,allen
22005,Ascension Parish,LA,-90.91370894,30.20234408,louisiana,ascension
22007,Assumption Parish,LA,-91.06609594,29.90319251,louisiana,assumption
22009,Avoyelles Parish,LA,-92.00565095,31.08009139,louisiana,avoyelles
22011,Beauregard Parish,LA,-93.34896275,30.65511219,louisiana,beauregard
22013,Bienville Parish,LA,-93.04846889,32.35019442,louisiana,bienville
22015,Bossier Parish,LA,-93.60464644,32.68136443,louisiana,bossier
22017,Caddo Parish,LA,-93.88843278,32.59124739,louisiana,caddo
22019,Calcasieu Parish,LA,-93.3489357,30.23697581,louisiana,calcasieu
22021,Caldwell Parish,LA,-92.12040614,32.08995384,louisiana,caldwell
22023,Cameron Parish,LA,-93.18902017,29.89038338,louisiana,cameron
22025,Catahoula Parish,LA,-91.84924091,31.66600913,louisiana,catahoula
22027,Claiborne Parish,LA,-92.99514158,32.82545749,louisiana,claiborne
22029,Concordia Parish,LA,-91.64186388,31.45513543,louisiana,concordia
22031,De Soto Parish,LA,-93.73826917,32.06573856,louisiana,de soto
22033,East Baton Rouge Parish,LA,-91.09814406,30.53617953,louisiana,east baton rouge
22035,East Carroll Parish,LA,-91.24474298,32.72371326,louisiana,east carroll
22037,East Feliciana Parish,LA,-91.0461,30.84534051,louisiana,east feliciana
22039,Evangeline Parish,LA,-92.40451479,30.73356046,louisiana,evangeline
22041,Franklin Parish,LA,-91.67689816,32.13571596,louisiana,franklin
22043,Grant Parish,LA,-92.5545857,31.60365383,louisiana,grant
22045,Iberia Parish,LA,-91.69699186,29.96958375,louisiana,iberia
22047,Iberville Parish,LA,-91.36086306,30.25897838,louisiana,iberville
22049,Jackson Parish,LA,-92.55802667,32.30471516,louisiana,jackson
22051,Jefferson Parish,LA,-90.11905457,29.71826592,louisiana,jefferson
22053,Jefferson Davis Parish,LA,-92.8074352,30.26984675,louisiana,jefferson davis
22055,Lafayette Parish,LA,-92.06025296,30.21321712,louisiana,lafayette
22057,Lafourche Parish,LA,-90.43568673,29.57472985,louisiana,lafourche
22059,La Salle Parish,LA,-92.16436196,31.67836114,louisiana,la salle
22061,Lincoln Parish,LA,-92.66494598,32.60565502,louisiana,lincoln
22063,Livingston Parish,LA,-90.71901994,30.44130901,louisiana,livingston
22065,Madison Parish,LA,-91.24776713,32.37025036,louisiana,madison
22067,Morehouse Parish,LA,-91.80790928,32.82221823,louisiana,morehouse
22069,Natchitoches Parish,LA,-93.09186936,31.72667893,louisiana,natchitoches
22071,Orleans Parish,LA,-89.93310081,30.03442982,louisiana,orleans
22073,Ouachita Parish,LA,-92.1593802,32.4833014,louisiana,ouachita
22075,Plaquemines Parish,LA,-89.62420948,29.45011504,louisiana,plaquemines
22077,Pointe Coupee Parish,LA,-91.60921251,30.71681253,louisiana,pointe coupee
22079,Rapides Parish,LA,-92.53011007,31.20510797,louisiana,rapides
22081,Red River Parish,LA,-93.33878346,32.0992281,louisiana,red river
22083,Richland Parish,LA,-91.7716887,32.42185812,louisiana,richland
22085,Sabine Parish,LA,-93.55608742,31.56954815,louisiana,sabine
22087,St. Bernard Parish,LA,-89.53591621,29.89684097,louisiana,st bernard
22089,St. Charles Parish,LA,-90.36207499,29.89801513,louisiana,st charles
22091,St. Helena Parish,LA,-90.71008986,30.82045926,louisiana,st helena
22093,St. James Parish,LA,-90.79426019,30.02744009,louisiana,st james
22095,St. John the Baptist Parish,LA,-90.54690391,30.09745049,louisiana,st john the baptist
22097,St. Landry Parish,LA,-92.00329696,30.60329396,louisiana,st landry
22099,St. Martin Parish,LA,-91.72490146,30.22681969,louisiana,st martin
22101,St. Mary Parish,LA,-91.44041844,29.72317336,louisiana,st mary
22103,St. Tammany Parish,LA,-89.94534458,30.46862633,louisiana,st tammany
22105,Tangipahoa Parish,LA,-90.41384802,30.65334726,louisiana,tangipahoa
22107,Tensas Parish,LA,-91.33296304,32.00768701,louisiana,tensas
22109,Terrebonne Parish,LA,-90.84061873,29.43120993,louisiana,terrebonne
22111,Union Parish,LA,-92.38028188,32.83355378,louisiana,union
22113,Vermilion Parish,LA,-92.32353647,29.86099423,louisiana,vermilion
22115,Vernon Parish,LA,-93.1825447,31.10797729,louisiana,vernon
22117,Washington Parish,LA,-90.03378723,30.85867525,louisiana,washington
22119,Webster Parish,LA,-93.33455887,32.71624227,louisiana,webster
22121,West Baton Rouge Parish,LA,-91.32827792,30.46556181,louisiana,west baton rouge
22123,West Carroll Parish,LA,-91.46351845,32.78826764,louisiana,west carroll
22125,West Feliciana Parish,LA,-91.42125715,30.88236107,louisiana,west feliciana
22127,Winn Parish,LA,-92.63472222,31.94680798,louisiana,winn
23001,Androscoggin County,ME,-70.20336584,44.17162148,maine,androscoggin
23003,Aroostook County,ME,-68.60191048,46.6656854,maine,aroostook
23005,Cumberland County,ME,-70.4279604,43.8724651,maine,cumberland
23007,Franklin County,ME,-70.44472053,44.98060361,maine,franklin
23009,Hancock County,ME,-68.35866397,44.71463989,maine,hancock
23011,Kennebec County,ME,-69.76618182,44.41875811,maine,kennebec
23013,Knox County,ME,-69.24059063,44.18294135,maine,knox
23015,Lincoln County,ME,-69.54311595,44.08870135,maine,lincoln
23017,Oxford County,ME,-70.76404443,44.51864133,maine,oxford
23019,Penobscot County,ME,-68.65370005,45.40534897,maine,penobscot
23021,Piscataquis County,ME,-69.28782711,45.83918585,maine,piscataquis
23023,Sagadahoc County,ME,-69.86822402,43.98979773,maine,sagadahoc
23025,Somerset County,ME,-69.96033989,45.5197908,maine,somerset
23027,Waldo County,ME,-69.16232382,44.51863235,maine,waldo
23029,Washington County,ME,-67.64576098,45.04992322,maine,washington
23031,York County,ME,-70.7122378,43.48719707,maine,york
24001,Allegany County,MD,-78.69579897,39.62446706,maryland,allegany
24003,Anne Arundel County,MD,-76.62605938,39.00517129,maryland,anne arundel
24005,Baltimore County,MD,-76.6495507,39.47285316,maryland,baltimore
24009,Calvert County,MD,-76.58745064,38.55388989,maryland,calvert
24011,Caroline County,MD,-75.84213917,38.87240851,maryland,caroline
24013,Carroll County,MD,-77.03297636,39.56482413,maryland,carroll
24015,Cecil County,MD,-75.94711022,39.58388904,maryland,cecil
24017,Charles County,MD,-77.04193852,38.50030204,maryland,charles
24019,Dorchester County,MD,-76.00709459,38.48525807,maryland,dorchester
24021,Frederick County,MD,-77.4078009,39.47735661,maryland,frederick
24023,Garrett County,MD,-79.27323315,39.54134369,maryland,garrett
24025,Harford County,MD,-76.32601855,39.56566307,maryland,harford
24027,Howard County,MD,-76.93604312,39.24910209,maryland,howard
24029,Kent County,MD,-76.03564987,39.25720994,maryland,kent
24031,Montgomery County,MD,-77.22022137,39.13830498,maryland,montgomery
24033,Prince George's County,MD,-76.86381841,38.8280724,maryland,prince georges
24035,Queen Anne's County,MD,-75.98857522,39.08363724,maryland,queen annes
24037,St. Mary's County,MD,-76.62962841,38.30228619,maryland,st marys
24039,Somerset County,MD,-75.7364942,38.12261807,maryland,somerset
24041,Talbot County,MD,-76.09285511,38.77272503,maryland,talbot
24043,Washington County,MD,-77.82077328,39.61130684,maryland,washington
24045,Wicomico County,MD,-75.62855168,38.37415718,maryland,wicomico
24047,Worcester County,MD,-75.34420461,38.2264833,maryland,worcester
24510,Baltimore city,MD,-76.6257442,39.31497769,maryland,baltimore city
25001,Barnstable County,MA,-70.28634062,41.73561679,massachusetts,barnstable
25003,Berkshire County,MA,-73.20492076,42.36782895,massachusetts,berkshire
25005,Bristol County,MA,-71.10949144,41.80539421,massachusetts,bristol
25007,Dukes County,MA,-70.63475653,41.38519077,massachusetts,dukes
25009,Essex County,MA,-70.97771424,42.66979675,massachusetts,essex
25011,Franklin County,MA,-72.59140997,42.58310594,massachusetts,franklin
25013,Hampden County,MA,-72.62532576,42.13670937,massachusetts,hampden
25015,Hampshire County,MA,-72.65909999,42.33916007,massachusetts,hampshire
25017,Middlesex County,MA,-71.38994326,42.48438331,massachusetts,middlesex
25019,Nantucket County,MA,-70.0530336,41.2892967,massachusetts,nantucket
25021,Norfolk County,MA,-71.2248266,42.1569883,massachusetts,norfolk
25023,Plymouth County,MA,-70.81561308,41.95679201,massachusetts,plymouth
25025,Suffolk County,MA,-71.1056226,42.30927517,massachusetts,suffolk
25027,Worcester County,MA,-71.90744016,42.35404363,massachusetts,worcester
26001,Alcona County,MI,-83.59497837,44.68867986,michigan,alcona
26003,Alger County,MI,-86.61852746,46.40752629,michigan,alger
26005,Allegan County,MI,-85.88516563,42.58998461,michigan,allegan
26007,Alpena County,MI,-83.62914459,45.03904703,michigan,alpena
26009,Antrim County,MI,-85.13616338,45.00239764,michigan,antrim
26011,Arenac County,MI,-83.89197861,44.07052822,michigan,arenac
26013,Baraga County,MI,-88.37614939,46.66409388,michigan,baraga
26015,Barry County,MI,-85.31197451,42.59332777,michigan,barry
26017,Bay County,MI,-83.9874799,43.70564361,michigan,bay
26019,Benzie County,MI,-86.00640252,44.64316427,michigan,benzie
26021,Berrien County,MI,-86.4184606,41.95962474,michigan,berrien
26023,Branch County,MI,-85.06425906,41.92650976,michigan,branch
26025,Calhoun County,MI,-85.00269728,42.24563006,michigan,calhoun
26027,Cass County,MI,-85.99086899,41.91985369,michigan,cass
26029,Charlevoix County,MI,-85.03412492,45.2250954,michigan,charlevoix
26031,Cheboygan County,MI,-84.50576422,45.44788804,michigan,cheboygan
26033,Chippewa County,MI,-84.72401471,46.32848469,michigan,chippewa
26035,Clare County,MI,-84.84279794,43.99134935,michigan,clare
26037,Clinton County,MI,-84.59433783,42.94895034,michigan,clinton
26039,Crawford County,MI,-84.60008196,44.68497753,michigan,crawford
26041,Delta County,MI,-86.93513364,45.9241574,michigan,delta
26043,Dickinson County,MI,-87.8834102,46.01173469,michigan,dickinson
26045,Eaton County,MI,-84.83791984,42.59903478,michigan,eaton
26047,Emmet County,MI,-84.8896455,45.51335225,michigan,emmet
26049,Genesee County,MI,-83.70346086,43.02800006,michigan,genesee
26051,Gladwin County,MI,-84.37862429,43.9929299,michigan,gladwin
26053,Gogebic County,MI,-89.68656595,46.40095655,michigan,gogebic
26055,Grand Traverse County,MI,-85.55443875,44.67390394,michigan,grand traverse
26057,Gratiot County,MI,-84.60437029,43.29691752,michigan,gratiot
26059,Hillsdale County,MI,-84.59661251,41.89662599,michigan,hillsdale
26061,Houghton County,MI,-88.68492282,46.89606817,michigan,houghton
26063,Huron County,MI,-83.01303897,43.83919599,michigan,huron
26065,Ingham County,MI,-84.36819183,42.60397778,michigan,ingham
26067,Ionia County,MI,-85.07058307,42.94749401,michigan,ionia
26069,Iosco County,MI,-83.63635619,44.35919976,michigan,iosco
26071,Iron County,MI,-88.53798258,46.2119247,michigan,iron
26073,Isabella County,MI,-84.84360938,43.64075933,michigan,isabella
26075,Jackson County,MI,-84.41929644,42.25047691,michigan,jackson
26077,Kalamazoo County,MI,-85.5254097,42.2470417,michigan,kalamazoo
26079,Kalkaska County,MI,-85.07925395,44.68833975,michigan,kalkaska
26081,Kent County,MI,-85.54570101,43.0325793,michigan,kent
26083,Keweenaw County,MI,-88.11833874,47.35684142,michigan,keweenaw
26085,Lake County,MI,-85.80474786,43.99349236,michigan,lake
26087,Lapeer County,MI,-83.22131401,43.09911145,michigan,lapeer
26089,Leelanau County,MI,-85.77004534,44.92094149,michigan,leelanau
26091,Lenawee County,MI,-84.0668852,41.90703643,michigan,lenawee
26093,Livingston County,MI,-83.90669774,42.60891951,michigan,livingston
26095,Luce County,MI,-85.54708246,46.46693166,michigan,luce
26097,Mackinac County,MI,-85.12119692,46.09372963,michigan,mackinac
26099,Macomb County,MI,-82.92812676,42.70345174,michigan,macomb
26101,Manistee County,MI,-86.05250546,44.33709421,michigan,manistee
26103,Marquette County,MI,-87.64827404,46.43258741,michigan,marquette
26105,Mason County,MI,-86.24713936,43.99448852,michigan,mason
26107,Mecosta County,MI,-85.32553825,43.64075933,michigan,mecosta
26109,Menominee County,MI,-87.56699888,45.57483522,michigan,menominee
26111,Midland County,MI,-84.38392159,43.64791116,michigan,midland
26113,Missaukee County,MI,-85.08136749,44.34120369,michigan,missaukee
26115,Monroe County,MI,-83.53714824,41.94229011,michigan,monroe
26117,Montcalm County,MI,-85.15404823,43.31100219,michigan,montcalm
26119,Montmorency County,MI,-84.1209651,45.02910845,michigan,montmorency
26121,Muskegon County,MI,-86.13699399,43.28786657,michigan,muskegon
26123,Newaygo County,MI,-85.8047285,43.55358655,michigan,newaygo
26125,Oakland County,MI,-83.38244409,42.66772761,michigan,oakland
26127,Oceana County,MI,-86.2544187,43.63675789,michigan,oceana
26129,Ogemaw County,MI,-84.12166307,44.33982468,michigan,ogemaw
26131,Ontonagon County,MI,-89.31971951,46.66420352,michigan,ontonagon
26133,Osceola County,MI,-85.32344532,43.99134468,michigan,osceola
26135,Oscoda County,MI,-84.12518246,44.68354116,michigan,oscoda
26137,Otsego County,MI,-84.59354183,45.01819555,michigan,otsego
26139,Ottawa County,MI,-85.98675908,42.96153747,michigan,ottawa
26141,Presque Isle County,MI,-83.91483169,45.34552967,michigan,presque isle
26143,Roscommon County,MI,-84.59721443,44.33692439,michigan,roscommon
26145,Saginaw County,MI,-84.04998847,43.33760765,michigan,saginaw
26147,St. Clair County,MI,-82.69856446,42.95782095,michigan,st clair
26149,St. Joseph County,MI,-85.52659841,41.92703182,michigan,st joseph
26151,Sanilac County,MI,-82.82102709,43.42782658,michigan,sanilac
26153,Schoolcraft County,MI,-86.21379298,46.19646311,michigan,schoolcraft
26155,Shiawassee County,MI,-84.13817125,42.95751885,michigan,shiawassee
26157,Tuscola County,MI,-83.41521555,43.47119662,michigan,tuscola
26159,Van Buren County,MI,-86.0148117,42.2490834,michigan,van buren
26161,Washtenaw County,MI,-83.83541145,42.26043778,michigan,washtenaw
26163,Wayne County,MI,-83.28590061,42.29536773,michigan,wayne
26165,Wexford County,MI,-85.57123152,44.34338506,michigan,wexford
27001,Aitkin County,MN,-93.4056053,46.60768289,minnesota,aitkin
27003,Anoka County,MN,-93.24879371,45.28353504,minnesota,anoka
27005,Becker County,MN,-95.65857422,46.93505339,minnesota,becker
27007,Beltrami County,MN,-94.9155955,47.96751566,minnesota,beltrami
27009,Benton County,MN,-94.00547259,45.71289085,minnesota,benton
27011,Big Stone County,MN,-96.39084317,45.42692858,minnesota,big stone
27013,Blue Earth County,MN,-94.07367311,44.04902044,minnesota,blue earth
27015,Brown County,MN,-94.72575382,44.25429732,minnesota,brown
27017,Carlton County,MN,-92.67067245,46.59479337,minnesota,carlton
27019,Carver County,MN,-93.80479693,44.83139857,minnesota,carver
27021,Cass County,MN,-94.31550935,46.9572623,minnesota,cass
27023,Chippewa County,MN,-95.56119508,45.02690136,minnesota,chippewa
27025,Chisago County,MN,-92.91865202,45.51134147,minnesota,chisago
27027,Clay County,MN,-96.47354762,46.89347808,minnesota,clay
27029,Clearwater County,MN,-95.36900908,47.58003352,minnesota,clearwater
27031,Cook County,MN,-90.50911847,47.9038551,minnesota,cook
27033,Cottonwood County,MN,-95.18943501,44.01978338,minnesota,cottonwood
27035,Crow Wing County,MN,-94.07007248,46.48131767,minnesota,crow wing
27037,Dakota County,MN,-93.06892787,44.6839123,minnesota,dakota
27039,Dodge County,MN,-92.86267452,44.03044146,minnesota,dodge
27041,Douglas County,MN,-95.45262796,45.93966589,minnesota,douglas
27043,Faribault County,MN,-93.95585808,43.68422644,minnesota,faribault
27045,Fillmore County,MN,-92.09099108,43.68319146,minnesota,fillmore
27047,Freeborn County,MN,-93.35288769,43.68486932,minnesota,freeborn
27049,Goodhue County,MN,-92.7271771,44.41794959,minnesota,goodhue
27051,Grant County,MN,-96.00498677,45.93981309,minnesota,grant
27053,Hennepin County,MN,-93.47874118,45.01601455,minnesota,hennepin
27055,Houston County,MN,-91.48580188,43.68031572,minnesota,houston
27057,Hubbard County,MN,-94.90745288,47.10550931,minnesota,hubbard
27059,Isanti County,MN,-93.29443142,45.5732765,minnesota,isanti
27061,Itasca County,MN,-93.61041571,47.5027268,minnesota,itasca
27063,Jackson County,MN,-95.16830009,43.68286066,minnesota,jackson
27065,Kanabec County,MN,-93.29119724,45.95718309,minnesota,kanabec
27067,Kandiyohi County,MN,-95.00050271,45.15814671,minnesota,kandiyohi
27069,Kittson County,MN,-96.76490802,48.77581043,minnesota,kittson
27071,Koochiching County,MN,-93.75874152,48.24423427,minnesota,koochiching
27073,Lac qui Parle County,MN,-96.16386655,45.00211803,minnesota,lac qui parle
27075,Lake County,MN,-91.42851191,47.63574348,minnesota,lake
27077,Lake of the Woods County,MN,-94.8852636,48.77576727,minnesota,lake of the woods
27079,Le Sueur County,MN,-93.72648504,44.38275816,minnesota,le sueur
27081,Lincoln County,MN,-96.2465387,44.42320475,minnesota,lincoln
27083,Lyon County,MN,-95.82818934,44.42854833,minnesota,lyon
27085,McLeod County,MN,-94.27310023,44.82933757,minnesota,mcleod
27087,Mahnomen County,MN,-95.79994687,47.3263299,minnesota,mahnomen
27089,Marshall County,MN,-96.36704007,48.35530068,minnesota,marshall
27091,Martin County,MN,-94.56381989,43.68230247,minnesota,martin
27093,Meeker County,MN,-94.52329262,45.12909103,minnesota,meeker
27095,Mille Lacs County,MN,-93.63328956,45.94932138,minnesota,mille lacs
27097,Morrison County,MN,-94.26893677,46.02256893,minnesota,morrison
27099,Mower County,MN,-92.75988863,43.68053487,minnesota,mower
27101,Murray County,MN,-95.7612916,44.03812243,minnesota,murray
27103,Nicollet County,MN,-94.24614289,44.36502249,minnesota,nicollet
27105,Nobles County,MN,-95.760458,43.6815444,minnesota,nobles
27107,Norman County,MN,-96.44001848,47.32696433,minnesota,norman
27109,Olmsted County,MN,-92.40091827,44.01403168,minnesota,olmsted
27111,Otter Tail County,MN,-95.6956936,46.41044258,minnesota,otter tail
27113,Pennington County,MN,-96.00571043,48.06592704,minnesota,pennington
27115,Pine County,MN,-92.73608369,46.1273735,minnesota,pine
27117,Pipestone County,MN,-96.23920698,44.03325101,minnesota,pipestone
27119,Polk County,MN,-96.39270208,47.77598492,minnesota,polk
27121,Pope County,MN,-95.44249926,45.59324699,minnesota,pope
27123,Ramsey County,MN,-93.09746459,45.02877072,minnesota,ramsey
27125,Red Lake County,MN,-96.07657022,47.87317783,minnesota,red lake
27127,Redwood County,MN,-95.25087412,44.41948343,minnesota,redwood
27129,Renville County,MN,-94.94219634,44.73687093,minnesota,renville
27131,Rice County,MN,-93.29707971,44.36347834,minnesota,rice
27133,Rock County,MN,-96.23827547,43.67612158,minnesota,rock
27135,Roseau County,MN,-95.78664147,48.77327287,minnesota,roseau
27137,St. Louis County,MN,-92.45992615,47.60980071,minnesota,st louis
27139,Scott County,MN,-93.53451934,44.65957737,minnesota,scott
27141,Sherburne County,MN,-93.78108844,45.45760347,minnesota,sherburne
27143,Sibley County,MN,-94.22610451,44.59109576,minnesota,sibley
27145,Stearns County,MN,-94.61377636,45.56110024,minnesota,stearns
27147,Steele County,MN,-93.23119433,44.03036361,minnesota,steele
27149,Stevens County,MN,-95.99534025,45.59242949,minnesota,stevens
27151,Swift County,MN,-95.67593501,45.28694135,minnesota,swift
27153,Todd County,MN,-94.8945582,46.07808655,minnesota,todd
27155,Traverse County,MN,-96.46521727,45.77678314,minnesota,traverse
27157,Wabasha County,MN,-92.22271968,44.2932372,minnesota,wabasha
27159,Wadena County,MN,-94.95949657,46.58903802,minnesota,wadena
27161,Waseca County,MN,-93.59408384,44.0322581,minnesota,waseca
27163,Washington County,MN,-92.88951573,45.03961531,minnesota,washington
27165,Watonwan County,MN,-94.6182518,43.98883438,minnesota,watonwan
27167,Wilkin County,MN,-96.45677921,46.36469813,minnesota,wilkin
27169,Winona County,MN,-91.77920991,43.99703246,minnesota,winona
27171,Wright County,MN,-93.96391834,45.18258159,minnesota,wright
27173,Yellow Medicine County,MN,-95.85750678,44.72556634,minnesota,yellow medicine
28001,Adams County,MS,-91.35343722,31.48788073,mississippi,adams
28003,Alcorn County,MS,-88.58118816,34.8804127,mississippi,alcorn
28005,Amite County,MS,-90.80948266,31.17633764,mississippi,amite
28007,Attala County,MS,-89.58390756,33.08576025,mississippi,attala
28009,Benton County,MS,-89.18892732,34.81856271,mississippi,benton
28011,Bolivar County,MS,-90.8875126,33.80045169,mississippi,bolivar
28013,Calhoun County,MS,-89.33351092,33.94117328,mississippi,calhoun
28015,Carroll County,MS,-89.9229867,33.45101749,mississippi,carroll
28017,Chickasaw County,MS,-88.94263395,33.92092496,mississippi,chickasaw
28019,Choctaw County,MS,-89.24592165,33.34425773,mississippi,choctaw
28021,Claiborne County,MS,-90.91171681,31.98128584,mississippi,claiborne
28023,Clarke County,MS,-88.68607315,32.04478233,mississippi,clarke
28025,Clay County,MS,-88.78228525,33.65703355,mississippi,clay
28027,Coahoma County,MS,-90.60825513,34.23612521,mississippi,coahoma
28029,Copiah County,MS,-90.45751017,31.87373342,mississippi,copiah
28031,Covington County,MS,-89.55894023,31.6401462,mississippi,covington
28033,DeSoto County,MS,-89.99337092,34.8766821,mississippi,de soto
28035,Forrest County,MS,-89.25840601,31.19464519,mississippi,forrest
28037,Franklin County,MS,-90.90666413,31.47975056,mississippi,franklin
28039,George County,MS,-88.63992101,30.8637824,mississippi,george
28041,Greene County,MS,-88.63871962,31.21361662,mississippi,greene
28043,Grenada County,MS,-89.79850512,33.77122492,mississippi,grenada
28045,Hancock County,MS,-89.48778846,30.42951283,mississippi,hancock
28047,Harrison County,MS,-89.11512242,30.52509529,mississippi,harrison
28049,Hinds County,MS,-90.45166913,32.27125198,mississippi,hinds
28051,Holmes County,MS,-90.09779369,33.12768935,mississippi,holmes
28053,Humphreys County,MS,-90.53171693,33.13463514,mississippi,humphreys
28055,Issaquena County,MS,-90.99280814,32.74038414,mississippi,issaquena
28057,Itawamba County,MS,-88.36133429,34.27806788,mississippi,itawamba
28059,Jackson County,MS,-88.63207341,30.56119308,mississippi,jackson
28061,Jasper County,MS,-89.11420156,32.02589024,mississippi,jasper
28063,Jefferson County,MS,-91.03654741,31.73809236,mississippi,jefferson
28065,Jefferson Davis County,MS,-89.83080214,31.57626916,mississippi,jefferson davis
28067,Jones County,MS,-89.16940789,31.62889542,mississippi,jones
28069,Kemper County,MS,-88.64154163,32.75414549,mississippi,kemper
28071,Lafayette County,MS,-89.48451173,34.3623074,mississippi,lafayette
28073,Lamar County,MS,-89.51502951,31.21509051,mississippi,lamar
28075,Lauderdale County,MS,-88.66104765,32.40521687,mississippi,lauderdale
28077,Lawrence County,MS,-90.11552759,31.55810258,mississippi,lawrence
28079,Leake County,MS,-89.52871068,32.75841898,mississippi,leake
28081,Lee County,MS,-88.67760137,34.28420441,mississippi,lee
28083,Leflore County,MS,-90.30537514,33.55282113,mississippi,leflore
28085,Lincoln County,MS,-90.46343596,31.5391525,mississippi,lincoln
28087,Lowndes County,MS,-88.44343506,33.46832545,mississippi,lowndes
28089,Madison County,MS,-90.04464665,32.63802114,mississippi,madison
28091,Marion County,MS,-89.83257245,31.23690828,mississippi,marion
28093,Marshall County,MS,-89.50320261,34.7649435,mississippi,marshall
28095,Monroe County,MS,-88.4765644,33.88974155,mississippi,monroe
28097,Montgomery County,MS,-89.61421285,33.49339404,mississippi,montgomery
28099,Neshoba County,MS,-89.11668388,32.75641835,mississippi,neshoba
28101,Newton County,MS,-89.11499023,32.4036274,mississippi,newton
28103,Noxubee County,MS,-88.56201846,33.10714092,mississippi,noxubee
28105,Oktibbeha County,MS,-88.87310961,33.4219717,mississippi,oktibbeha
28107,Panola County,MS,-89.94897408,34.36975998,mississippi,panola
28109,Pearl River County,MS,-89.57988952,30.77800527,mississippi,pearl river
28111,Perry County,MS,-88.99231724,31.17828137,mississippi,perry
28113,Pike County,MS,-90.41262981,31.17645865,mississippi,pike
28115,Pontotoc County,MS,-89.03878322,34.22792995,mississippi,pontotoc
28117,Prentiss County,MS,-88.52339289,34.61600833,mississippi,prentiss
28119,Quitman County,MS,-90.29244433,34.25499188,mississippi,quitman
28121,Rankin County,MS,-89.95294321,32.26736678,mississippi,rankin
28123,Scott County,MS,-89.53954909,32.41092604,mississippi,scott
28125,Sharkey County,MS,-90.81318431,32.88124705,mississippi,sharkey
28127,Simpson County,MS,-89.92517603,31.91634349,mississippi,simpson
28129,Smith County,MS,-89.50844765,32.02499106,mississippi,smith
28131,Stone County,MS,-89.11114165,30.79450736,mississippi,stone
28133,Sunflower County,MS,-90.59011411,33.60615798,mississippi,sunflower
28135,Tallahatchie County,MS,-90.17374991,33.95347073,mississippi,tallahatchie
28137,Tate County,MS,-89.94817774,34.65527135,mississippi,tate
28139,Tippah County,MS,-88.91084551,34.76866436,mississippi,tippah
28141,Tishomingo County,MS,-88.24452228,34.74392738,mississippi,tishomingo
28143,Tunica County,MS,-90.36772418,34.64853246,mississippi,tunica
28145,Union County,MS,-89.00514214,34.49216185,mississippi,union
28147,Walthall County,MS,-90.11151984,31.1497632,mississippi,walthall
28149,Warren County,MS,-90.84849922,32.36482266,mississippi,warren
28151,Washington County,MS,-90.95320831,33.27833012,mississippi,washington
28153,Wayne County,MS,-88.69573224,31.64468912,mississippi,wayne
28155,Webster County,MS,-89.28377436,33.61282514,mississippi,webster
28157,Wilkinson County,MS,-91.31469342,31.16184555,mississippi,wilkinson
28159,Winston County,MS,-89.02605754,33.08922936,mississippi,winston
28161,Yalobusha County,MS,-89.70412425,34.02980354,mississippi,yalobusha
28163,Yazoo County,MS,-90.40386636,32.78736917,mississippi,yazoo
29001,Adair County,MO,-92.58729975,40.19681914,missouri,adair
29003,Andrew County,MO,-94.79899482,39.9967374,missouri,andrew
29005,Atchison County,MO,-95.43087407,40.45218442,missouri,atchison
29007,Audrain County,MO,-91.8294885,39.21243428,missouri,audrain
29009,Barry County,MO,-93.84152373,36.71533273,missouri,barry
29011,Barton County,MO,-94.35434353,37.50884433,missouri,barton
29013,Bates County,MO,-94.34460011,38.25773419,missouri,bates
29015,Benton County,MO,-93.29154592,38.30144912,missouri,benton
29017,Bollinger County,MO,-90.03084802,37.31949566,missouri,bollinger
29019,Boone County,MO,-92.29940303,38.98605951,missouri,boone
29021,Buchanan County,MO,-94.81032527,39.67013706,missouri,buchanan
29023,Butler County,MO,-90.41352872,36.72073383,missouri,butler
29025,Caldwell County,MO,-93.98278035,39.66324139,missouri,caldwell
29027,Callaway County,MO,-91.91773615,38.83643368,missouri,callaway
29029,Camden County,MO,-92.7607568,38.0247056,missouri,camden
29031,Cape Girardeau County,MO,-89.68134183,37.3800471,missouri,cape girardeau
29033,Carroll County,MO,-93.51498327,39.43371261,missouri,carroll
29035,Carter County,MO,-90.97971263,36.93114178,missouri,carter
29037,Cass County,MO,-94.35671898,38.64569612,missouri,cass
29039,Cedar County,MO,-93.86211369,37.72168006,missouri,cedar
29041,Chariton County,MO,-92.95150657,39.51749613,missouri,chariton
29043,Christian County,MO,-93.19344652,36.9696767,missouri,christian
29045,Clark County,MO,-91.72012005,40.41702932,missouri,clark
29047,Clay County,MO,-94.41888838,39.31987014,missouri,clay
29049,Clinton County,MO,-94.40369924,39.61163267,missouri,clinton
29051,Cole County,MO,-92.27452823,38.50215022,missouri,cole
29053,Cooper County,MO,-92.80342923,38.84370771,missouri,cooper
29055,Crawford County,MO,-91.30472406,37.97060773,missouri,crawford
29057,Dade County,MO,-93.8524546,37.43518519,missouri,dade
29059,Dallas County,MO,-93.02914534,37.67738922,missouri,dallas
29061,Daviess County,MO,-93.98333816,39.97065707,missouri,daviess
29063,DeKalb County,MO,-94.40110127,39.90077143,missouri,de kalb
29065,Dent County,MO,-91.5143159,37.60044013,missouri,dent
29067,Douglas County,MO,-92.50556209,36.9340529,missouri,douglas
29069,Dunklin County,MO,-90.08852211,36.27852233,missouri,dunklin
29071,Franklin County,MO,-91.07306372,38.4092413,missouri,franklin
29073,Gasconade County,MO,-91.50657203,38.44198343,missouri,gasconade
29075,Gentry County,MO,-94.40665365,40.21907203,missouri,gentry
29077,Greene County,MO,-93.34881025,37.25813687,missouri,greene
29079,Grundy County,MO,-93.5617695,40.12279819,missouri,grundy
29081,Harrison County,MO,-93.99294475,40.37010524,missouri,harrison
29083,Henry County,MO,-93.79668244,38.39002545,missouri,henry
29085,Hickory County,MO,-93.32276575,37.9464538,missouri,hickory
29087,Holt County,MO,-95.20969936,40.10569433,missouri,holt
29089,Howard County,MO,-92.68246006,39.14268667,missouri,howard
29091,Howell County,MO,-91.89224271,36.77228751,missouri,howell
29093,Iron County,MO,-90.78226608,37.55116879,missouri,iron
29095,Jackson County,MO,-94.34867665,39.01030165,missouri,jackson
29097,Jasper County,MO,-94.35150624,37.21560857,missouri,jasper
29099,Jefferson County,MO,-90.54184314,38.25596682,missouri,jefferson
29101,Johnson County,MO,-93.80609913,38.7458533,missouri,johnson
29103,Knox County,MO,-92.13278373,40.13238771,missouri,knox
29105,Laclede County,MO,-92.58776812,37.65567673,missouri,laclede
29107,Lafayette County,MO,-93.78435622,39.06577653,missouri,lafayette
29109,Lawrence County,MO,-93.83626663,37.11251553,missouri,lawrence
29111,Lewis County,MO,-91.70728603,40.09846649,missouri,lewis
29113,Lincoln County,MO,-90.96503997,39.05495898,missouri,lincoln
29115,Linn County,MO,-93.10559984,39.87064868,missouri,linn
29117,Livingston County,MO,-93.5500077,39.79258946,missouri,livingston
29119,McDonald County,MO,-94.36057043,36.63852777,missouri,mcdonald
29121,Macon County,MO,-92.54811078,39.83243254,missouri,macon
29123,Madison County,MO,-90.34812276,37.47470594,missouri,madison
29125,Maries County,MO,-91.91881282,38.16091523,missouri,maries
29127,Marion County,MO,-91.61304861,39.80330448,missouri,marion
29129,Mercer County,MO,-93.56745443,40.43676643,missouri,mercer
